location,placeid,formatted_address,location_type,continent,colloquial_area,country,admin_1,admin_2,locality,natural_feature,point_of_interest,lat,lon,partial
roma,ChIJu46S-ZZhLxMROG5lkwZ3D7k,"Rome, Metropolitan City of Rome, Italy",locality+political,,,Italy,Lazio,Metropolitan City of Rome,Rome,,,41.90278350000001,12.4963655,0.0
italia,ChIJA9KNRIL-1BIRb15jJFz1LOI,Italy,country+political,,,Italy,,,,,,41.87194,12.56738,0.0
new york,ChIJOwg_06VPwokRYv534QaPC8g,"New York, NY, USA",locality+political,,,United States,New York,,New York,,,40.7127753,-74.0059728,0.0
stati uniti,ChIJCzYy5IS16lQRQrfeQ5K5Oxw,United States,country+political,,,United States,,,,,,37.09024,-95.712891,0.0
francia,ChIJMVd4MymgVA0R99lHx5Y__Ws,France,country+political,,,France,,,,,,46.227638,2.213749,0.0
parigi,ChIJD7fiBh9u5kcRYJSMaMOCCwQ,"Paris, France",locality+political,,,France,Île-de-France,Paris,Paris,,,48.856614,2.3522219,0.0
russia,ChIJ-yRniZpWPEURE_YRZvj9CRQ,Russia,country+political,,,Russia,,,,,,61.52401,105.318756,0.0
germania,ChIJa76xwh5ymkcRW-WRjmtd6HU,Germany,country+political,,,Germany,,,,,,51.165691,10.451526,0.0
londra,ChIJdd4hrwug2EcRmSrV3Vo6llI,"London, UK",locality+political,,,United Kingdom,England,Greater London,London,,,51.5073509,-0.1277583,0.0
napoli,ChIJmX5sak8IOxMRHRl4O8Es9T0,"Naples, Metropolitan City of Naples, Italy",locality+political,,,Italy,Campania,Metropolitan City of Naples,Naples,,,40.85179829999999,14.26812,0.0
milano,ChIJ53USP0nBhkcRjQ50xhPN_zw,"Milan, Metropolitan City of Milan, Italy",locality+political,,,Italy,Lombardy,Metropolitan City of Milan,Milan,,,45.4642035,9.189982,0.0
washington,ChIJW-T2Wt7Gt4kRKl2I1CJFUsI,"Washington, DC, USA",locality+political,,,United States,District of Columbia,District of Columbia,Washington,,,38.9071923,-77.03687070000002,0.0
san francisco,ChIJIQBpAG2ahYAR_6128GcTUEo,"San Francisco, CA, USA",locality+political,,,United States,California,San Francisco County,San Francisco,,,37.7749295,-122.4194155,0.0
america,ChIJCzYy5IS16lQRQrfeQ5K5Oxw,United States,country+political,,,United States,,,,,,37.09024,-95.712891,0.0
genova,ChIJrZrU3FJB0xIRCmKBGPGEaiM,"Genoa, Metropolitan City of Genoa, Italy",locality+political,,,Italy,Liguria,Metropolitan City of Genoa,Genoa,,,44.4056499,8.946256,0.0
giappone,ChIJLxl_1w9OZzQRRFJmfNR1QvU,Japan,country+political,,,Japan,,,,,,36.204824,138.252924,0.0
spagna,ChIJi7xhMnjjQgwR7KNoB5Qs7KY,Spain,country+political,,,Spain,,,,,,40.46366700000001,-3.74922,0.0
torino,ChIJ31ztwwxtiEcR4JQ8R33mBQQ,"Turin, Metropolitan City of Turin, Italy",locality+political,,,Italy,Piedmont,Metropolitan City of Turin,Turin,,,45.0703393,7.686864,0.0
pietroburgo,ChIJ7WVKx4w3lkYR_46Eqz9nx20,"St Petersburg, Russia",locality+political,,,Russia,,Saint Petersburg,Saint Petersburg,,,59.9342802,30.3350986,0.0
berlino,ChIJAVkDPzdOqEcRcDteW0YgIQQ,"Berlin, Germany",locality+political,,,Germany,Berlin,,Berlin,,,52.52000659999999,13.404954,0.0
inghilterra,ChIJ39UebIqp0EcRqI4tMyWV4fQ,"England, UK",administrative_area_level_1+political,,,United Kingdom,England,,,,,52.3555177,-1.1743197,0.0
europa,ChIJhdqtz4aI7UYRefD8s-aZ73I,Europe,continent+establishment+natural_feature+political,Europe,,,,,,,,54.52596139999999,15.2551187,0.0
vienna,ChIJn8o2UZ4HbUcRRluiUYrlwv0,"Vienna, Austria",locality+political,,,Austria,Vienna,,Vienna,,,48.2081743,16.3738189,0.0
california,ChIJPV4oX_65j4ARVW8IJ6IJUYs,"California, USA",administrative_area_level_1+political,,,United States,California,,,,,36.778261,-119.4179324,0.0
tripoli,ChIJ2UMcwcSSqBMRhuxce5TYmY0,"Tripoli, Libya",locality+political,,,Libya,Tripoli District,,Tripoli,,,32.8872094,13.1913383,0.0
turchia,ChIJcSZPllwVsBQRKl9iKtTb2UA,Turkey,country+political,,,Turkey,,,,,,38.963745,35.243322,0.0
pacifico,ChIJI7dOuEzY54kRRnS50NhTKEo,"220 College St, New Haven, CT 06510, USA",bar+establishment+food+meal_takeaway+point_of_interest+restaurant,,,United States,Connecticut,New Haven County,New Haven,,,41.3061607,-72.92965869999998,0.0
repubblica,ChIJCzYy5IS16lQRQrfeQ5K5Oxw,United States,country+political,,,United States,,,,,,37.09024,-95.712891,0.0
venezia,ChIJiT3W8dqxfkcRLxCSvfDGo3s,"Venice, Metropolitan City of Venice, Italy",locality+political,,,Italy,Veneto,Metropolitan City of Venice,Venice,,,45.4408474,12.3155151,0.0
bologna,ChIJC8RR6ZjUf0cRQZSkWwF84aI,"Bologna, Metropolitan City of Bologna, Italy",locality+political,,,Italy,Emilia-Romagna,Metropolitan City of Bologna,Bologna,,,44.494887,11.3426162,0.0
firenze,ChIJrdbSgKZWKhMRAyrH7xd51ZM,"Florence, Metropolitan City of Florence, Italy",locality+political,,,Italy,Tuscany,Metropolitan City of Florence,Florence,,,43.7695604,11.2558136,0.0
austria,ChIJfyqdJZsHbUcRr8Hk3XvUEhA,Austria,country+political,,,Austria,,,,,,47.516231,14.550072,0.0
sicilia,ChIJs1lT0GhiEBMRUH22ZykECwE,"Sicily, Italy",administrative_area_level_1+political,,,Italy,Sicily,,,,,37.5999938,14.0153557,0.0
messina,ChIJ4c24AitMFBMRXfIh1QbKHiA,"Messina, Province of Messina, Italy",locality+political,,,Italy,Sicily,Province of Messina,Messina,,,38.1937335,15.5542057,0.0
trieste,ChIJM_Xt5AZre0cRUCvd1IQkamY,"Trieste, UTI Giuliana, Italy",locality+political,,,Italy,Friuli-Venezia Giulia,UTI Giuliana,Trieste,,,45.6495264,13.7768182,0.0
madrid,ChIJgTwKgJcpQg0RaSKMYcHeNsQ,"Madrid, Spain",locality+political,,,Spain,Community of Madrid,Madrid,Madrid,,,40.4167754,-3.7037902,0.0
palermo,ChIJmdBOgcnoGRMRgNg7IywECwo,"Palermo, Province of Palermo, Italy",locality+political,,,Italy,Sicily,Province of Palermo,Palermo,,,38.11569,13.3614868,0.0
cuba,ChIJtUx6DwdJzYgRGqQQkVL3jHk,Cuba,country+political,,,Cuba,,,,,,21.521757,-77.78116700000002,0.0
messico,ChIJU1NoiDs6BIQREZgJa760ZO0,Mexico,country+political,,,Mexico,,,,,,23.634501,-102.552784,0.0
marocco,ChIJjcVRlmGICw0Rw_8sxIGT09k,Morocco,country+political,,,Morocco,,,,,,31.791702,-7.092619999999997,0.0
philadelphia,ChIJ60u11Ni3xokRwVg-jNgU9Yk,"Philadelphia, PA, USA",locality+political,,,United States,Pennsylvania,Philadelphia County,Philadelphia,,,39.9525839,-75.1652215,0.0
provincia,ChIJAT3_SpR3gkcRwH6QFYcJBwM,"Province of Trento, Italy",administrative_area_level_2+political,,,Italy,Trentino-South Tyrol,Province of Trento,,,,46.0512004,11.1175392,0.0
cina,ChIJwULG5WSOUDERbzafNHyqHZU,China,country+political,,,China,,,,,,35.86166,104.195397,0.0
portogallo,ChIJ1SZCvy0kMgsRQfBOHAlLuCo,Portugal,country+political,,,Portugal,,,,,,39.39987199999999,-8.224454,0.0
stato,ChIJqaUj8fBLzEwRZ5UY3sHGz90,"New York, USA",administrative_area_level_1+political,,,United States,New York,,,,,43.2994285,-74.21793260000003,0.0
pennsylvania,ChIJieUyHiaALYgRPbQiUEchRsI,"Pennsylvania, USA",administrative_area_level_1+political,,,United States,Pennsylvania,,,,,41.2033216,-77.1945247,0.0
costa,ChIJ3Xyn_hzBwIcRAODkPRBKsLQ,"8093 W 159th St, Overland Park, KS 66223, USA",establishment+food+point_of_interest+restaurant,,,United States,Kansas,Johnson County,Overland Park,,,38.8396284,-94.6848861,0.0
belgio,ChIJl5fz7WR9wUcR8g_mObTy60c,Belgium,country+political,,,Belgium,,,,,,50.503887,4.469936,0.0
serbia,ChIJlYCJ8t8dV0cRXYYjN-pQXgU,Serbia,country+political,,,Serbia,,,,,,44.016521,21.005859,0.0
calabria,ChIJCxVihNKQPxMRcSMmPSQdpJE,"Calabria, Italy",administrative_area_level_1+political,,,Italy,Calabria,,,,,39.3087714,16.3463791,0.0
corea,ChIJOxw9ixBjYjURlzlK_FFhQYY,Korea,colloquial_area+political,,Korea,,,,,,,37.66399759999999,127.9784585,0.0
uniti,ChIJCzYy5IS16lQRQrfeQ5K5Oxw,United States,country+political,,,United States,,,,,,37.09024,-95.712891,0.0
brasile,ChIJzyjM68dZnAARYz4p8gYVWik,Brazil,country+political,,,Brazil,,,,,,-14.235004,-51.92528,0.0
boston,ChIJGzE9DS1l44kRoOhiASS_fHg,"Boston, MA, USA",locality+political,,,United States,Massachusetts,Suffolk County,Boston,,,42.3600825,-71.0588801,0.0
pag,ChIJUxyKxCoxYkcRQzG4DLwE09A,"Pag, Croatia",establishment+natural_feature,,,Croatia,,,,,,44.4672189,14.9916875,0.0
venezuela,ChIJAdjLNstTKIwR003VfFjyoNw,Venezuela,country+political,,,Venezuela,,,,,,6.42375,-66.58973,0.0
mosca,ChIJybDUc_xKtUYRTM9XV8zWRD0,"Moscow, Russia",locality+political,,,Russia,,Moscow,Moscow,,,55.755826,37.6172999,0.0
svizzera,ChIJYW1Zb-9kjEcRFXvLDxG1Vlw,Switzerland,country+political,,,Switzerland,,,,,,46.818188,8.227511999999999,0.0
mediterraneo,ChIJxT3WVgidQIYROBPOVDpi6r8,"18033 Upper Bay Rd, Houston, TX 77058, USA",establishment+food+point_of_interest+restaurant,,,United States,Texas,Harris County,Houston,,,29.5500032,-95.0888385,0.0
grecia,ChIJY2xxEcdKWxMRHS2a3HUXOjY,Greece,country+political,,,Greece,,,,,,39.074208,21.824312,0.0
nazione,,,,,,,,,,,,,,
chicago,ChIJ7cv00DwsDogRAMDACa2m4K8,"Chicago, IL, USA",locality+political,,,United States,Illinois,Cook County,Chicago,,,41.8781136,-87.62979820000002,0.0
bulgaria,ChIJifBbyMH-qEAREEy_aRKgAAA,Bulgaria,country+political,,,Bulgaria,,,,,,42.733883,25.48583,0.0
china,ChIJwULG5WSOUDERbzafNHyqHZU,China,country+political,,,China,,,,,,35.86166,104.195397,0.0
colonia,ChIJ5S-raZElv0cR8HcqSvxgJwQ,"Cologne, Germany",locality+political,,,Germany,North Rhine-Westphalia,Cologne,Cologne,,,50.937531,6.9602786,0.0
regno,,,,,,,,,,,,,,
filippine,ChIJY96HXyFTQDIRV9opeu-QR3g,Philippines,country+political,,,Philippines,,,,,,12.879721,121.774017,0.0
marsiglia,ChIJM1PaREO_yRIRIAKX_aUZCAQ,"Marseille, France",locality+political,,,France,Provence-Alpes-Côte d'Azur,Bouches-du-Rhone,Marseille,,,43.296482,5.36978,0.0
fiume,ChIJLb6qFyWhZEcRcLbLPThvPDc,"Rijeka, Croatia",locality+political,,,Croatia,Primorje-Gorski Kotar County,Općina Rijeka,Rijeka,,,45.3270631,14.442176,0.0
africa,ChIJ1fWMlApsoBARs_CQnslwghA,Africa,continent+establishment+natural_feature+political,Africa,,,,,,,,-8.783195,34.508523,0.0
comune,ChIJQV3SNX-JOIgRY9lc0ZB02Bw,"677 Parsons Ave, Columbus, OH 43206, USA",establishment+food+point_of_interest+restaurant,,,United States,Ohio,Franklin County,Columbus,,,39.9499647,-82.98264300000002,0.0
lisbona,ChIJO_PkYRozGQ0R0DaQ5L3rAAQ,"Lisbon, Portugal",locality+political,,,Portugal,Lisbon,,Lisbon,,,38.7222524,-9.1393366,0.0
catania,ChIJtSUVdt3iExMR8DzIUWGH_lg,"Catania, Province of Catania, Italy",locality+political,,,Italy,Sicily,Province of Catania,Catania,,,37.5078772,15.0830304,0.0
argentina,ChIJZ8b99fXKvJURqA_wKpl3Lz0,Argentina,country+political,,,Argentina,,,,,,-38.416097,-63.61667199999999,0.0
macedonia,ChIJCUi8cJ8VVBMRscUfyNZa8uA,North Macedonia,country+political,,,North Macedonia,,,,,,41.608635,21.745275,0.0
tokio,ChIJXSModoWLGGARILWiCfeu2M0,"Tokyo, Japan",locality+political,,Tokyo,Japan,Tokyo,,Tokyo,,,35.6803997,139.7690174,0.0
porto di new york,ChIJOwg_06VPwokRYv534QaPC8g,"New York, NY, USA",locality+political,,,United States,New York,,New York,,,40.7127753,-74.0059728,0.0
canada,ChIJ2WrMN9MDDUsRpY9Doiq3aJk,Canada,country+political,,,Canada,,,,,,56.130366,-106.346771,0.0
los angeles,ChIJE9on3F3HwoAR9AhGJW_fL-I,"Los Angeles, CA, USA",locality+political,,,United States,California,Los Angeles County,Los Angeles,,,34.0522342,-118.2436849,0.0
buenos ayres,ChIJvQz5TjvKvJURh47oiC6Bs6A,"Buenos Aires, Argentina",locality+political,,,Argentina,Buenos Aires,,Buenos Aires,,,-34.6036844,-58.3815591,0.0
trento,ChIJ253Oycp2gkcRR_WfE5mixic,"Trento, Province of Trento, Italy",locality+political,,,Italy,Trentino-South Tyrol,Province of Trento,Trento,,,46.0747793,11.1217486,0.0
texas,ChIJSTKCCzZwQIYRPN4IGI8c6xY,"Texas, USA",administrative_area_level_1+political,,,United States,Texas,,,,,31.9685988,-99.9018131,0.0
sardegna,ChIJkTWNRI3E3RIRMWar5LZ0ljM,"Sardinia, Italy",administrative_area_level_1+political,,,Italy,Sardinia,,,,,40.1208752,9.012892599999999,0.0
siberia,ChIJO3rn9brrh1wRTEZnK5gSRCw,"Siberia, Russia",colloquial_area+political,,Siberia,Russia,,,,,,61.01370970000001,99.1966559,0.0
vaticano,ChIJPS3UVwqJJRMRsH46sppPCQA,"00120, Vatican City",locality+political,,,Vatican City,,,Vatican City,,,41.902916,12.453389,0.0
reggio,ChIJs_nlB1scgEcRNQOGTL5Q5tk,"Reggio Emilia, Province of Reggio Emilia, Italy",locality+political,,,Italy,Emilia-Romagna,Province of Reggio Emilia,Reggio Emilia,,,44.6989932,10.6296859,0.0
alpi,ChIJUb40tZ9FiUcRfcV01tx_jAM,Alps,establishment+natural_feature,,,,,,,,,46.88761909999999,9.6569996,0.0
lombardia,ChIJf4M-GsNEgUcR1JMVKCIm8qY,"Lombardy, Italy",administrative_area_level_1+political,,,Italy,Lombardy,,,,,45.47906709999999,9.8452433,0.0
bruxelles,ChIJZ2jHc-2kw0cRpwJzeGY6i8E,"Brussels, Belgium",locality+political,,,Belgium,Brussels,,Brussels,,,50.8503396,4.3517103,0.0
livorno,ChIJow9-62fp1RIR1BPaIn3zLWA,"Livorno, Province of Livorno, Italy",locality+political,,,Italy,Tuscany,Province of Livorno,Livorno,,,43.548473,10.3105674,0.0
piemonte,ChIJZ7GdATt0h0cR_zsS8u24x7w,"Piedmont, Italy",administrative_area_level_1+political,,,Italy,Piedmont,,,,,45.0522366,7.515388499999998,0.0
ginevra,ChIJ6-LQkwZljEcRObwLezWVtqA,"Geneva, Switzerland",locality+political,,,Switzerland,Geneva,Geneva,Geneva,,,46.2043907,6.143157700000001,0.0
york,ChIJYYWuV8GLyIkRzRPyXur6rBo,"York, PA, USA",locality+political,,,United States,Pennsylvania,York County,York,,,39.9625984,-76.727745,0.0
polonia,ChIJuwtkpGSZAEcR6lXMScpzdQk,Poland,country+political,,,Poland,,,,,,51.919438,19.145136,0.0
san,,,,,,,,,,,,,,
spezia,ChIJrV7xusD81BIRgE9aKK2HMjI,"La Spezia, SP, Italy",locality+political,,,Italy,Liguria,Province of La Spezia,La Spezia,,,44.1024504,9.82408259999999,0.0
fort arthur,,,,,,,,,,,,,,
roosevelt,ChIJ_wpRQWKEt4cRyV8dfkcoq4M,"1000 W 8th St, Coffeyville, KS 67337, USA",establishment+point_of_interest+school,,,United States,Kansas,Montgomery County,Coffeyville,,,37.0370388,-95.6316181,0.0
albania,ChIJLUwnvfM7RRMR7juY1onlfAc,Albania,country+political,,,Albania,,,,,,41.153332,20.168331,0.0
ungheria,ChIJw-Q333uDQUcREBAeDCnEAAA,Hungary,country+political,,,Hungary,,,,,,47.162494,19.5033041,0.0
svezia,ChIJ8fA1bTmyXEYRYm-tjaLruCI,Sweden,country+political,,,Sweden,,,,,,60.12816100000001,18.643501,0.0
ancona,ChIJw6lHJCqALRMRrMU_VIBWrQ8,"Ancona, Province of Ancona, Italy",locality+political,,,Italy,Marche,Province of Ancona,Ancona,,,43.6158299,13.518915,0.0
barcellona,ChIJ5TCOcRaYpBIRCmZHTz37sEQ,"Barcelona, Spain",locality+political,,,Spain,Catalonia,Barcelona,Barcelona,,,41.3850639,2.1734035,0.0
pisa,ChIJj1n28JqR1RIRyHiEp7UPuKo,"Pisa, Province of Pisa, Italy",locality+political,,,Italy,Tuscany,Province of Pisa,Pisa,,,43.7228386,10.4016888,0.0
padova,ChIJzzCrQVjafkcRLC4aqu02gsE,"Padua, Province of Padua, Italy",locality+political,,,Italy,Veneto,Province of Padua,Padua,,,45.4064349,11.8767611,0.0
verona,ChIJ4-CbaWhff0cRW1mCaGNa-FM,"Verona, VR, Italy",locality+political,,,Italy,Veneto,Province of Verona,Verona,,,45.43838419999999,10.9916215,0.0
atlantico,ChIJ_7hu48qBWgYRT1MQ81ciNKY,Atlantic Ocean,establishment+natural_feature+political,,,,,,,,,-14.5994134,-28.6731465,0.0
panama,ChIJ4yu-yIMVpo8Rz5ulH03g7nk,Panama,country+political,,,Panama,,,,,,8.537981,-80.782127,0.0
stati,ChIJCzYy5IS16lQRQrfeQ5K5Oxw,United States,country+political,,,United States,,,,,,37.09024,-95.712891,0.0
pechino,ChIJuSwU55ZS8DURiqkPryBWYrk,"Beijing, China",locality+political,,,China,Beijing,,Beijing,,,39.90419989999999,116.4073963,0.0
unione,,,,,,,,,,,,,,
in new york,ChIJOwg_06VPwokRYv534QaPC8g,"New York, NY, USA",locality+political,,,United States,New York,,New York,,,40.7127753,-74.0059728,0.0
trapani,ChIJX5Ck1i9iGRMRgjSY-bze8Ys,"91100 Trapani, Province of Trapani, Italy",locality+political,,,Italy,Sicily,Province of Trapani,Trapani,,,38.0173505,12.5365171,0.0
berna,ChIJdxs61MA5jkcRmmVXBP5fVcs,"Bern, Switzerland",locality+political,,,Switzerland,Canton of Bern,Bern District,Bern,,,46.9479739,7.447446799999999,0.0
udine,ChIJ9QC7_K9KekcRWDiW9CnZVzA,"33100 Udine, Province of Udine, Italy",locality+political,,,Italy,Friuli-Venezia Giulia,Province of Udine,Udine,,,46.0710668,13.2345794,0.0
savoia,ChIJ2xyKSAjK1okRdklJDNLBTIM,"2267 Clifford Ave, Rochester, NY 14609, USA",bakery+establishment+food+point_of_interest+store,,,United States,New York,Monroe County,Rochester,,,43.176086,-77.56056699999998,0.0
trentino,ChIJAT3_SpR3gkcRwH6QFYcJBwM,"Province of Trento, Italy",administrative_area_level_2+political,,,Italy,Trentino-South Tyrol,Province of Trento,,,,46.0512004,11.1175392,0.0
norvegia,ChIJv-VNj0VoEkYRK9BkuJ07sKE,Norway,country+political,,,Norway,,,,,,60.47202399999999,8.468945999999999,0.0
monaco,ChIJza3f3ofCzRIRbGhb2W4pFe4,"Monte Carlo, Monaco",locality+political,,,Monaco,,,Monaco,,,43.7400718,7.426643599999998,0.0
mukden,ChIJtzQTOkE8JV4RZpGSzvDkmVQ,"Shenyang, Liaoning, China",locality+political,,,China,Liaoning,,Shenyang,,,41.805699,123.431472,0.0
iran,ChIJ8R1rwS7s9z4RzvpRntOVsEA,Iran,country+political,,,Iran,,,,,,32.427908,53.68804599999999,0.0
monza,ChIJh1tQNqG5hkcRnUQAylh9zBE,"20900 Monza, Province of Monza and Brianza, Italy",locality+political,,,Italy,Lombardy,Province of Monza and Brianza,Monza,,,45.5845001,9.2744485,0.0
repubblica argentina,ChIJZ8b99fXKvJURqA_wKpl3Lz0,Argentina,country+political,,,Argentina,,,,,,-38.416097,-63.61667199999999,0.0
veneto,ChIJd7cEzPHXeEcRcHyQFYcJBwE,"Veneto, Italy",administrative_area_level_1+political,,,Italy,Veneto,,,,,45.4414662,12.3152595,0.0
balcani,ChIJp64RwkCAVhMRXUcLSWN___0,Balkans,colloquial_area+political,,Balkans,,,,,,,41.8101472,21.09373110000001,0.0
nizza,ChIJMS2FahDQzRIRcJqX_aUZCAQ,"Nice, France",locality+political,,,France,Provence-Alpes-Côte d'Azur,Alpes-Maritimes,Nice,,,43.7101728,7.261953200000002,0.0
peru,ChIJ9RRZwFDIBZERSAYheRIBnvI,Peru,country+political,,,Peru,,,,,,-9.189967,-75.015152,0.0
bari,ChIJb40H8_joRxMR4Qg5agZUcgg,"Bari, Metropolitan City of Bari, Italy",locality+political,,,Italy,Apulia,Metropolitan City of Bari,Bari,,,41.1171432,16.8718715,0.0
olanda,ChIJu-SH28MJxkcRnwq9_851obM,Netherlands,country+political,,,Netherlands,,,,,,52.132633,5.291265999999999,0.0
parma,ChIJL8PUVOFqgEcRmjaQXHM3oQM,"Parma, Province of Parma, Italy",locality+political,,,Italy,Emilia-Romagna,Province of Parma,Parma,,,44.801485,10.3279036,0.0
santiago,ChIJp3Hd4kT-Lg0REeOHwIhoFOA,"Santiago de Compostela, A Coruña, Spain",locality+political,,,Spain,Galicia,A Coruña,Santiago de Compostela,,,42.87821320000001,-8.5448445,0.0
in america,ChIJCzYy5IS16lQRQrfeQ5K5Oxw,United States,country+political,,,United States,,,,,,37.09024,-95.712891,0.0
corte,ChIJ7ZTPHaABt4cRFXtxR_SdZcg,"2055 E 350 Rd, Talala, OK 74080, USA",establishment+point_of_interest,,,United States,Oklahoma,Rogers County,Talala,,,36.511212,-95.79307299999999,0.0
brescia,ChIJTSmwom52gUcRBOpqRxVGzSI,"Brescia, Province of Brescia, Italy",locality+political,,,Italy,Lombardy,Province of Brescia,Brescia,,,45.5415526,10.2118019,0.0
togo,ChIJGVQYE8HhIxARYJPRGjBbrvo,Togo,country+political,,,Togo,,,,,,8.619543,0.824782,0.0
new,ChIJg4qJ1xUruIcRIfyWJm-QIZ0,"116 W Poplar St, Independence, KS 67301, USA",electronics_store+establishment+point_of_interest+store,,,United States,Kansas,Montgomery County,Independence,,,37.21890080000001,-95.706999,0.0
toscana,ChIJezSAEFMr1BIRq1kgW7rDxro,"Tuscany, Italy",administrative_area_level_1+political,,,Italy,Tuscany,,,,,43.7710513,11.2486208,0.0
florida,ChIJvypWkWV2wYgR0E7HW9MTLvc,"Florida, USA",administrative_area_level_1+political,,,United States,Florida,,,,,27.6648274,-81.5157535,0.0
liguria,ChIJtU8s2GUS0xIRkHw8R33mBQE,"Liguria, Italy",administrative_area_level_1+political,,,Italy,Liguria,,,,,44.3167917,8.396493800000002,0.0
patria,ChIJdX0fpCWe7ocRtj9Oq2_Ckvs,"1410 22nd St, West Des Moines, IA 50266, USA",establishment+food+meal_takeaway+point_of_interest+restaurant,,,United States,Iowa,Polk County,West Des Moines,,,41.5949291,-93.7379916,0.0
taranto,ChIJE3unGRgdRxMRz99XjaX5-GQ,"Taranto, Province of Taranto, Italy",locality+political,,,Italy,Apulia,Province of Taranto,Taranto,,,40.46436060000001,17.2470303,0.0
egitto,ChIJ6TZcw3aJNhQRRMTEJQmgRSw,Egypt,country+political,,,Egypt,,,,,,26.820553,30.802498,0.0
costa del pacifico,ChIJCzYy5IS16lQRQrfeQ5K5Oxw,United States,country+political,,,United States,,,,,,37.09024,-95.712891,0.0
zurigo,ChIJGaK-SZcLkEcRA9wf5_GNbuY,"Zürich, Switzerland",locality+political,,,Switzerland,Zurich,Zürich District,Zürich,,,47.37688660000001,8.541694,0.0
australia,ChIJ38WHZwf9KysRUhNblaFnglM,Australia,country+political,,,Australia,,,,,,-25.274398,133.775136,0.0
newyork,ChIJOwg_06VPwokRYv534QaPC8g,"New York, NY, USA",locality+political,,,United States,New York,,New York,,,40.7127753,-74.0059728,0.0
somalia,ChIJg1vR7KcuHRgRvuXpXM46OZ4,"Raas Cabaad, Somalia",country+political,,,Somalia,,,Raas Cabaad,,,5.152149,46.199616,0.0
indiana,ChIJHRv42bxQa4gRcuwyy84vEH4,"Indiana, USA",administrative_area_level_1+political,,,United States,Indiana,,,,,40.2671941,-86.1349019,0.0
atene,ChIJ8UNwBh-9oRQR3Y1mdkU1Nic,"Athens, Greece",locality+political,,,Greece,,,Athens,,,37.9838096,23.7275388,0.0
caracas,ChIJB0iCza1YKowRg4SZCq4u3ZM,"Caracas, Capital District, Venezuela",locality+political,,,Venezuela,Capital District,Libertador,Caracas,,,10.4805937,-66.90360629999999,0.0
americana,ChIJiQyH7_7AwoARTPBiaEqv_60,"889 Americana Way, Glendale, CA 91210, USA",establishment+point_of_interest+shopping_mall,,,United States,California,Los Angeles County,Glendale,,,34.1444096,-118.2564806,0.0
manilla,ChIJi8MeVwPKlzMRH8FpEHXV0Wk,"Manila, Metro Manila, Philippines",locality+political,,,Philippines,Metro Manila,,Manila,,,14.5995124,120.9842195,0.0
terni,ChIJ8xn42kT7LhMRwo3x2vEL4Ws,"05100 Terni, Province of Terni, Italy",locality+political,,,Italy,Umbria,Province of Terni,Terni,,,42.56361679999999,12.6426604,0.0
new orleans,ChIJZYIRslSkIIYRtNMiXuhbBts,"New Orleans, LA, USA",locality+political,,,United States,Louisiana,Orleans Parish,New Orleans,,,29.95106579999999,-90.0715323,0.0
manila,ChIJi8MeVwPKlzMRH8FpEHXV0Wk,"Manila, Metro Manila, Philippines",locality+political,,,Philippines,Metro Manila,,Manila,,,14.5995124,120.9842195,0.0
bosnia,ChIJ16k3xxWiSxMRDOm3QwPi920,Bosnia and Herzegovina,country+political,,,Bosnia and Herzegovina,,,,,,43.915886,17.67907600000001,0.0
new york dopo,ChIJOwg_06VPwokRYv534QaPC8g,"New York, NY, USA",locality+political,,,United States,New York,,New York,,,40.7127753,-74.0059728,0.0
danimarca,ChIJ-1-U7rYnS0YRzZLgw9BDh1I,Denmark,country+political,,,Denmark,,,,,,56.26392,9.501785,0.0
porto di new york dopo,ChIJOwg_06VPwokRYv534QaPC8g,"New York, NY, USA",locality+political,,,United States,New York,,New York,,,40.7127753,-74.0059728,0.0
como,,,,,,,,,,,,,,
piave,ChIJDwYmyB2meUcRh4cjCercZUg,"Piave, Italy",establishment+natural_feature,,,Italy,Veneto,,,,,46.1349922,12.227916,0.0
belgrado,ChIJvT-116N6WkcR5H4X8lxkuB0,"Belgrade, Serbia",locality+political,,,Serbia,,City of Belgrade,Belgrade,,,44.786568,20.4489216,0.0
san pietro,ChIJPS3UVwqJJRMRsH46sppPCQA,"00120, Vatican City",locality+political,,,Vatican City,,,Vatican City,,,41.902916,12.453389,0.0
regione,ChIJTTKY8z3gt4kR4b_xrKoukDo,"5705 Richards Valley Rd, Ellicott City, MD 21043, USA",bar+establishment+food+point_of_interest+restaurant,,,United States,Maryland,Howard County,Ellicott City,,,39.2138992,-76.80244569999998,0.0
georgia,ChIJV4FfHcU28YgR5xBP7BC8hGY,"Georgia, USA",administrative_area_level_1+political,,,United States,Georgia,,,,,32.1656221,-82.9000751,0.0
a,ChIJM8vKSn6Et4cRv3f0WBq8e6g,"1717 W 8th St, Coffeyville, KS 67337, USA",doctor+establishment+health+point_of_interest,,,United States,Kansas,Montgomery County,Coffeyville,,,37.0359183,-95.644049,0.0
m,ChIJC5QAUgBlt4cRXMzoL2UE_FQ,"728 N Wood St, Caney, KS 67333, USA",establishment+home_goods_store+plumber+point_of_interest+store,,,United States,Kansas,Montgomery County,Caney,,,37.01839580000001,-95.9384754,0.0
stalo,,,,,,,,,,,,,,
marzo,ChIJfXW43ll9wokRYPYr_M0B7oQ,"212 Jericho Turnpike, Mineola, NY 11501, USA",doctor+establishment+health+point_of_interest,,,United States,New York,Nassau County,Mineola,,,40.742151,-73.6402236,0.0
india,ChIJkbeSa_BfYzARphNChaFPjNc,India,country+political,,,India,,,,,,20.593684,78.96288,0.0
cavour,ChIJgXm-dUjBQIYRogH5sWO-UhI,"1080 Uptown Park Blvd, Houston, TX 77056, USA",bar+establishment+food+point_of_interest+restaurant,,,United States,Texas,Harris County,Houston,,,29.7575809,-95.4582464,0.0
innsbruck,ChIJc8r44c9unUcRDZsdKH0cIJ0,"Innsbruck, Austria",locality+political,,,Austria,Tyrol,Innsbruck,Innsbruck,,,47.2692124,11.4041024,0.0
portsmouth,ChIJ6fEUGKRCdEgReTs3A-qDtkU,"Portsmouth, UK",locality+political,,,United Kingdom,England,Portsmouth,Portsmouth,,,50.8197675,-1.0879769,0.0
san jose,ChIJ9T_5iuTKj4ARe3GfygqMnbk,"San Jose, CA, USA",locality+political,,,United States,California,Santa Clara County,San Jose,,,37.3382082,-121.8863286,0.0
creta,ChIJg7ePxdcDmxQRmJlhKBGUMrs,"Crete Region, Greece",administrative_area_level_1+political,,,Greece,Crete Region,,,,,35.240117,24.8092691,0.0
siena,ChIJE1O_NL8sKhMR40Mj8RISc10,"53100 Siena, Province of Siena, Italy",locality+political,,,Italy,Tuscany,Province of Siena,Siena,,,43.31880899999999,11.3307574,0.0
roma roma,ChIJu46S-ZZhLxMROG5lkwZ3D7k,"Rome, Metropolitan City of Rome, Italy",locality+political,,,Italy,Lazio,Metropolitan City of Rome,Rome,,,41.9027835,12.4963655,0.0
val,,,,,,,,,,,,,,
francisco,ChIJIQBpAG2ahYAR_6128GcTUEo,"San Francisco, CA, USA",locality+political,,,United States,California,San Francisco County,San Francisco,,,37.7749295,-122.4194155,0.0
stali uniti,ChIJCzYy5IS16lQRQrfeQ5K5Oxw,United States,country+political,,,United States,,,,,,37.09024,-95.712891,0.0
amsterdam,ChIJVXealLU_xkcRja_At0z9AGY,"Amsterdam, Netherlands",locality+political,,,Netherlands,North Holland,Government of Amsterdam,Amsterdam,,,52.3666969,4.8945398,0.0
teheran,ChIJ2dzzH0kAjj8RvCRwVnxps_A,"Tehran, Tehran Province, Iran",locality+political,,,Iran,Tehran Province,Tehran,Tehran,,,35.6891975,51.3889736,0.0
zara,ChIJj7jA0mL6YUcRhAf0Exw-MhI,"Zadar, Croatia",locality+political,,,Croatia,,,Zadar,,,44.119371,15.2313648,0.0
wilson,,,,,,,,,,,,,,
nord america,ChIJnXKOaXELs1IRgqNhl4MoExM,North America,continent+establishment+natural_feature+political,North America,,,,,,,,54.52596139999999,-105.2551187,0.0
amburgo,ChIJuRMYfoNhsUcRoDrWe_I9JgQ,"Hamburg, Germany",locality+political,,,Germany,Hamburg,,Hamburg,,,53.5510846,9.9936819,0.0
ruma,ChIJu-E4V_OrW0cRh-Y0zwDiWGw,"Ruma, Serbia",locality+political,,,Serbia,Vojvodina,Srem District,Ruma,,,45.0079235,19.8226157,0.0
reggio calabria,ChIJlSDqSZdQFBMRIj6cHj0TXcc,"Reggio Calabria, Province of Reggio Calabria, Italy",locality+political,,,Italy,Calabria,Province of Reggio Calabria,Reggio Calabria,,,38.1113006,15.6472914,0.0
catanzaro,ChIJD-sUyMIGQBMReDIi44mp3dA,"88100 Catanzaro, Province of Catanzaro, Italy",locality+political,,,Italy,Calabria,Province of Catanzaro,Catanzaro,,,38.90979189999999,16.5876516,0.0
filadelfia,ChIJ60u11Ni3xokRwVg-jNgU9Yk,"Philadelphia, PA, USA",locality+political,,,United States,Pennsylvania,Philadelphia County,Philadelphia,,,39.9525839,-75.1652215,0.0
seoul,ChIJzWXFYYuifDUR64Pq5LTtioU,"Seoul, South Korea",locality+political,,,South Korea,Seoul,,Seoul,,,37.566535,126.9779692,0.0
mantova,ChIJ2S7lgg_UgUcRhXsOWQf9x8E,"46100 Mantua, Province of Mantua, Italy",locality+political,,,Italy,Lombardy,Province of Mantua,Mantua,,,45.1564168,10.7913751,0.0
brooklyn,ChIJOwg_06VPwokRYv534QaPC8g,"New York, NY, USA",locality+political,,,United States,New York,,New York,,,40.7127753,-74.0059728,0.0
estero,,,,,,,,,,,,,,
un anno,,,,,,,,,,,,,,
alessandria,ChIJBWVB7TF0h0cR2WIMD5n1R9Y,"Alessandria, Province of Alessandria, Italy",locality+political,,,Italy,Piedmont,Province of Alessandria,Alessandria,,,44.9072727,8.6116796,0.0
co,ChIJ79zA_oaEt4cRtBpwJF76PVk,"1209 S Buckeye St, Coffeyville, KS 67337, USA",establishment+point_of_interest,,,United States,Kansas,Montgomery County,Coffeyville,,,37.0311686,-95.6376827,0.0
stato di new york,ChIJOwg_06VPwokRYv534QaPC8g,"New York, NY, USA",locality+political,,,United States,New York,,New York,,,40.7127753,-74.0059728,0.0
ita,,,,,,,,,,,,,,
lione,ChIJl4foalHq9EcR8CG75CqrCAQ,"Lyon, France",locality+political,,,France,Auvergne-Rhône-Alpes,Rhône,Lyon,,,45.764043,4.835659,0.0
perugia,ChIJT8NR6oygLhMR9MdPiCrrOc4,"Perugia, Province of Perugia, Italy",locality+political,,,Italy,Umbria,Province of Perugia,Perugia,,,43.11071679999999,12.3908279,0.0
romagna,ChIJ3YXzRny1KhMRoHy6_AubBwE,"Emilia-Romagna, Italy",administrative_area_level_1+political,,,Italy,Emilia-Romagna,,,,,44.5967607,11.2186396,0.0
asia,ChIJV-jLJIrxYzYRWfSg0_xrQak,Asia,continent+establishment+natural_feature+political,Asia,,,,,,,,34.047863,100.6196553,0.0
italiani,,,,,,,,,,,,,,
malta,ChIJxUeGHShFDhMROUK-NmHYgvU,Malta,country+political,,,Malta,,,,,,35.937496,14.375416,0.0
italia roma,ChIJu46S-ZZhLxMROG5lkwZ3D7k,"Rome, Metropolitan City of Rome, Italy",locality+political,,,Italy,Lazio,Metropolitan City of Rome,Rome,,,41.90278350000001,12.4963655,0.0
modena,ChIJ4WRJ3RLvf0cRKH8rSX0edZY,"Modena, Province of Modena, Italy",locality+political,,,Italy,Emilia-Romagna,Province of Modena,Modena,,,44.647128,10.9252269,0.0
salonicco,ChIJ7eAoFPQ4qBQRqXTVuBXnugk,"Thessaloniki, Greece",locality+political,,,Greece,,,Thessaloniki,,,40.6400629,22.9444191,0.0
varsavia,ChIJAZ-GmmbMHkcR_NPqiCq-8HI,"Warsaw, Poland",locality+political,,,Poland,Masovian Voivodeship,Warszawa,Warsaw,,,52.2296756,21.0122287,0.0
pavia,ChIJSQD6dUwmh0cRjoLPs7y0tfU,"27100 Pavia, Province of Pavia, Italy",locality+political,,,Italy,Lombardy,Province of Pavia,Pavia,,,45.1847248,9.1582069,0.0
gorizia,ChIJ9ZhcOrYAe0cRuEgE1wMUgDY,"34170 Gorizia, Province of Gorizia, Italy",locality+political,,,Italy,Friuli-Venezia Giulia,Province of Gorizia,Gorizia,,,45.94018120000001,13.6201754,0.0
zola,ChIJwx3XYhdawokRT0-fhDhafls,"250 Greenwich St F39, New York, NY 10007, USA",establishment+point_of_interest,,,United States,New York,New York County,New York,,,40.7134166,-74.0119311,0.0
mar nero,ChIJM_LSd0u5XUARmMatWcbWXP4,Black Sea,establishment+natural_feature+political,,,,,,,,,43.41302899999999,34.299316,0.0
shanghai,ChIJMzz1sUBwsjURoWTDI5QSlQI,"Shanghai, China",locality+political,,,China,Shanghai,,Shanghai,,,31.230416,121.473701,0.0
s,ChIJ0TuapxWCt4cRy-3jk72BFyg,"312 S Independence Ave, Dearing, KS 67340, USA",establishment+finance+point_of_interest+post_office,,,United States,Kansas,Montgomery County,Dearing,,,37.0557152,-95.7107214,0.0
tampa,ChIJ4dG5s4K3wogRY7SWr4kTX6c,"Tampa, FL, USA",locality+political,,,United States,Florida,Hillsborough County,Tampa,,,27.950575,-82.4571776,0.0
mass,ChIJx30R4-5YwokRuFC0O5aPB2M,"1040 Mass MoCA Way, North Adams, MA 01247, USA",establishment+museum+point_of_interest,,,United States,Massachusetts,Berkshire County,North Adams,,,42.7014557,-73.1140921,0.0
oriente,ChIJsWVfpILrtocRnUS3CEFHcHo,"111 N Main St, Tulsa, OK 74103, USA",establishment+food+point_of_interest+restaurant,,,United States,Oklahoma,Tulsa County,Tulsa,,,36.15819570000001,-95.9934027,0.0
piacenza,ChIJBZXJ8vjngEcRdyHkndkj02A,"Piacenza, Province of Piacenza, Italy",locality+political,,,Italy,Emilia-Romagna,Province of Piacenza,Piacenza,,,45.0526206,9.6929845,0.0
broadway,ChIJJ-hFnerCx4cRfleZybl75FY,"1304 S Broadway St, Pittsburg, KS 66762, USA",establishment+hardware_store+home_goods_store+point_of_interest+store,,,United States,Kansas,Crawford County,Pittsburg,,,37.3961631,-94.7053013,0.0
veloce,ChIJX7FZ66mpBYgRQc3eqGDJrwQ,"W229N1400 Westwood Dr, Waukesha, WI 53186, USA",amusement_park+establishment+point_of_interest,,,United States,Wisconsin,Waukesha County,Waukesha,,,43.0499421,-88.2060941,0.0
sud america,ChIJtTRdNRw0CZQRK-PGyc8M1Gk,South America,continent+establishment+natural_feature+political,South America,,,,,,,,-8.783195,-55.491477,0.0
novara,ChIJbTNCQiBahkcR8IAp-jUOIU0,"28100 Novara, Province of Novara, Italy",locality+political,,,Italy,Piedmont,Province of Novara,Novara,,,45.44692999999999,8.622161199999999,0.0
regno unito,ChIJqZHHQhE7WgIReiWIMkOg-MQ,United Kingdom,country+political,,,United Kingdom,,,,,,55.378051,-3.435973,0.0
ferrara,ChIJ3REr3gtOfkcRLitxU655Ozw,"Ferrara, Province of Ferrara, Italy",locality+political,,,Italy,Emilia-Romagna,Province of Ferrara,Ferrara,,,44.8381237,11.619787,0.0
dresda,ChIJqdYaECnPCUcRsP6IQsuxIQQ,"Dresden, Germany",locality+political,,,Germany,Saxony,Dresden Government Region,Dresden,,,51.0504088,13.7372621,0.0
mazzini,ChIJk5TyzIxz44kRn1TFB5it_xo,"3 Woodland Rd STE 422, Stoneham, MA 02180, USA",doctor+establishment+health+point_of_interest,,,United States,Massachusetts,Middlesex County,Stoneham,,,42.452667,-71.08934649999998,0.0
pekino,ChIJuSwU55ZS8DURiqkPryBWYrk,"Beijing, China",locality+political,,,China,Beijing,,Beijing,,,39.90419989999999,116.4073963,0.0
tolone,ChIJ_bI1ewIbyRIRMMiP_aUZCAQ,"Toulon, France",locality+political,,,France,Provence-Alpes-Côte d'Azur,Var,Toulon,,,43.124228,5.928,0.0
montreal,ChIJDbdkHFQayUwR7-8fITgxTmU,"Montreal, QC, Canada",locality+political,,,Canada,Quebec,Montreal,Montreal,,,45.5016889,-73.567256,0.0
adriatico,ChIJgep4oGR654gRTOfiXtzvAA8,"2417 Edgewater Dr, Orlando, FL 32804, USA",establishment+food+point_of_interest+restaurant,,,United States,Florida,Orange County,Orlando,,,28.573029,-81.3893671,0.0
italiano,ChIJ1y6LIxUruIcRz-MTkjTEBGE,"113 S Pennsylvania Ave, Independence, KS 67301, USA",establishment+food+point_of_interest+restaurant,,,United States,Kansas,Montgomery County,Independence,,,37.22268870000001,-95.7069709,0.0
ravenna,ChIJF9okWlD5fUcRdqdUnDyjdCo,"Ravenna, Province of Ravenna, Italy",locality+political,,,Italy,Emilia-Romagna,Province of Ravenna,Ravenna,,,44.4183598,12.2035294,0.0
nevada,ChIJcbTe-KEKmYARs5X8qooDR88,"Nevada, USA",administrative_area_level_1+political,,,United States,Nevada,,,,,38.8026097,-116.419389,0.0
cremona,ChIJg_5xPG3-gEcR9dpL5-c3dzA,"26100 Cremona, Province of Cremona, Italy",locality+political,,,Italy,Lombardy,Province of Cremona,Cremona,,,45.133249,10.0226511,0.0
taormina,ChIJtdmgkaERFBMRSekW1jSaoXQ,"98039 Taormina, Province of Messina, Italy",locality+political,,,Italy,Sicily,Province of Messina,Taormina,,,37.85163660000001,15.2853127,0.0
port arthur,ChIJX6EEvJW6PoYR7Zxq3JuCwnY,"Port Arthur, TX, USA",locality+political,,,United States,Texas,Jefferson County,Port Arthur,,,29.8849504,-93.939947,0.0
cairo,ChIJ674hC6Y_WBQRujtC6Jay33k,"Cairo, Cairo Governorate, Egypt",locality+political,,,Egypt,Cairo Governorate,,Cairo,,,30.0444196,31.23571160000001,0.0
seattle,ChIJVTPokywQkFQRmtVEaUZlJRA,"Seattle, WA, USA",locality+political,,,United States,Washington,King County,Seattle,,,47.6062095,-122.3320708,0.0
sud africa,ChIJURLu2YmmNBwRoOikHwxjXeg,South Africa,country+political,,,South Africa,,,,,,-30.559482,22.937506,0.0
pa,ChIJieUyHiaALYgRPbQiUEchRsI,"Pennsylvania, USA",administrative_area_level_1+political,,,United States,Pennsylvania,,,,,41.2033216,-77.1945247,0.0
reno,ChIJnaCSkq5AmYARh_c4dM7FxUA,"Reno, NV, USA",locality+political,,,United States,Nevada,Washoe County,Reno,,,39.5296329,-119.8138027,0.0
rio janeiro,ChIJW6AIkVXemwARTtIvZ2xC3FA,"Rio de Janeiro, State of Rio de Janeiro, Brazil",locality+political,,,Brazil,State of Rio de Janeiro,Rio de Janeiro,Rio de Janeiro,,,-22.9068467,-43.1728965,0.0
cal,ChIJW2G4n0SXyYcRDpZ__8alYK8,"62947 US-59, Watts, OK 74964, USA",establishment+food+point_of_interest,,,United States,Oklahoma,Adair County,Watts,,,36.10556210000001,-94.570911,0.0
nkw york,ChIJ8WWY4UDDeEgR0eRUiomrdEc,"York, UK",locality+political,,,United Kingdom,England,York,York,,,53.95996510000001,-1.0872979,0.0
libia,ChIJDQHOjtmSqBMRKsL5x0FgB_o,Libya,country+political,,,Libya,,,,,,26.3351,17.228331,0.0
marsala,ChIJvRbwDSHDGxMRx1UCEI3KDYY,"91025 Marsala, Province of Trapani, Italy",locality+political,,,Italy,Sicily,Province of Trapani,Marsala,,,37.7981074,12.4372236,0.0
scozia,ChIJn6HyA8TiYUgRFAfDCdj6wec,"Scotland, UK",administrative_area_level_1+political,,,United Kingdom,Scotland,,,,,56.49067119999999,-4.2026458,0.0
in francia,ChIJMVd4MymgVA0R99lHx5Y__Ws,France,country+political,,,France,,,,,,46.227638,2.213749,0.0
maggio,ChIJeXprnQU6JIYRVfhmGmXFNzk,"310 New Roads St, New Roads, LA 70760, USA",car_dealer+establishment+point_of_interest+store,,,United States,Louisiana,Pointe Coupee Parish,New Roads,,,30.6958339,-91.43410209999999,0.0
paterson,ChIJgUIFaTT8wokR2iT7x2DRyr4,"Paterson, NJ, USA",locality+political,,,United States,New Jersey,Passaic County,Paterson,,,40.9167654,-74.17181099999998,0.0
taft,ChIJ3zgKVznYtYcRX2vj-xTVB0c,"Taft, OK, USA",locality+political,,,United States,Oklahoma,Muskogee County,Taft,,,35.7617667,-95.5463665,0.0
ue,ChIJH2Rbbj2VwokRfxPIs4k9hKc,"14 Hayes St, Elmsford, NY 10523, USA",establishment+point_of_interest,,,United States,New York,Westchester County,Elmsford,,,41.0575535,-73.81929040000001,0.0
cuneo,ChIJpziBxzhpzRIRR-YmF8trXRM,"12100 Cuneo, Province of Cuneo, Italy",locality+political,,,Italy,Piedmont,Province of Cuneo,Cuneo,,,44.3844766,7.5426711,0.0
stoccolma,ChIJywtkGTF2X0YRZnedZ9MnDag,"Stockholm, Sweden",locality+political,,,Sweden,Stockholm County,,Stockholm,,,59.3293235,18.0685808,0.0
americane,ChIJtTY8CaS3t4kRPltWXgEDAQI,"200 17th St NW, Washington, DC 20006, USA",establishment+point_of_interest,,,United States,District of Columbia,,Washington,,,38.8928441,-77.0403808,0.0
mar rosso,ChIJ5TD1N3obuRURx3GQUqEotLo,Red Sea,establishment+natural_feature+political,,,,,,,,,20.280232,38.512573,0.0
re,ChIJT6Wmqy4St4cRgC4L8lTZ6Yw,"1809 SE Washington Blvd, Bartlesville, OK 74006, USA",establishment+point_of_interest+real_estate_agency,,,United States,Oklahoma,Washington County,Bartlesville,,,36.7257656,-95.9357349,0.0
parigi parigi,ChIJD7fiBh9u5kcRYJSMaMOCCwQ,"Paris, France",locality+political,,,France,Île-de-France,Paris,Paris,,,48.856614,2.3522219,0.0
francia parigi,ChIJD7fiBh9u5kcRYJSMaMOCCwQ,"Paris, France",locality+political,,,France,Île-de-France,Paris,Paris,,,48.856614,2.3522219,0.0
buenos aires,ChIJvQz5TjvKvJURh47oiC6Bs6A,"Buenos Aires, Argentina",locality+political,,,Argentina,Buenos Aires,,Buenos Aires,,,-34.6036844,-58.3815591,0.0
baviera,ChIJqVPfD0wEn0cRYHk4CaQlHQE,"Bavaria, Germany",administrative_area_level_1+political,,,Germany,Bavaria,,,,,48.7904472,11.4978895,0.0
manica,ChIJqRM-lAG03UcR4DE19j7xCio,English Channel,establishment+natural_feature,,,,,,,,,50.134664,-0.357056,0.0
lawrence,ChIJg5hHzsdAv4cRLqt4BNUTFxU,"Lawrence, KS, USA",locality+political,,,United States,Kansas,Douglas County,Lawrence,,,38.9716689,-95.2352501,0.0
lugano,ChIJ8RFCavcthEcR4PihLiEEjO8,"Lugano, Switzerland",locality+political,,,Switzerland,Ticino,Lugano District,Lugano,,,46.0036778,8.951051999999997,0.0
oceano,ChIJOzWfTyvL2IcRIbn-h40sRf8,"44 N Brentwood Blvd, Clayton, MO 63105, USA",establishment+food+point_of_interest+restaurant,,,United States,Missouri,St. Louis County,Clayton,,,38.6516941,-90.34094209999999,0.0
salerno,ChIJiTC9NFfCOxMRoHQD2hOXpBU,"Salerno, SA, Italy",locality+political,,,Italy,Campania,Province of Salerno,Salerno,,,40.68244079999999,14.7680961,0.0
praga,ChIJi3lwCZyTC0cRkEAWZg-vAAQ,"Prague, Czechia",locality+political,,,Czechia,Prague,Hlavní město Praha,Prague,,,50.0755381,14.4378005,0.0
persia,ChIJ8R1rwS7s9z4RzvpRntOVsEA,Iran,country+political,,,Iran,,,,,,32.427908,53.68804599999999,0.0
aosta,ChIJt6-2PrcgiUcRECbuQ-RJZwA,"11100 Aosta, Aosta Valley, Italy",locality+political,,,Italy,Aosta,Aosta Valley,Aosta,,,45.7349551,7.313076199999998,0.0
ispagna,ChIJi7xhMnjjQgwR7KNoB5Qs7KY,Spain,country+political,,,Spain,,,,,,40.463667,-3.74922,0.0
campania,,,,,,,,,,,,,,
giugno,,,,,,,,,,,,,,
copenaghen,ChIJIz2AXDxTUkYRuGeU5t1-3QQ,"Copenhagen, Denmark",locality+political,,,Denmark,,,Copenhagen,,,55.6760968,12.5683372,0.0
mentana,ChIJy7XddjhwLxMRuTwPEjDQWYk,"00013 Mentana, Metropolitan City of Rome, Italy",locality+political,,,Italy,Lazio,Metropolitan City of Rome,Mentana,,,42.0323743,12.6424255,0.0
bergamo,ChIJc65ivBFRgUcR0aTlC4_LL9M,"Bergamo, Province of Bergamo, Italy",locality+political,,,Italy,Lombardy,Province of Bergamo,Bergamo,,,45.6982642,9.6772698,0.0
new york new york,ChIJOwg_06VPwokRYv534QaPC8g,"New York, NY, USA",locality+political,,,United States,New York,,New York,,,40.7127753,-74.0059728,0.0
brindisi,ChIJbeyAyTt6RhMR-doDzPfOEAE,"72100 Brindisi, BR, Italy",locality+political,,,Italy,Apulia,Province of Brindisi,Brindisi,,,40.6327278,17.9417616,0.0
nuova york,ChIJOwg_06VPwokRYv534QaPC8g,"New York, NY, USA",locality+political,,,United States,New York,,New York,,,40.7127753,-74.0059728,0.0
via mazzini,ChIJQyDHOzUrfkcRgXs5yUY7tB4,"Via Mazzini, Bologna BO, Italy",route,,,Italy,Emilia-Romagna,Città Metropolitana di Bologna,Bologna,,,44.4868099,11.3663699,0.0
sabato,,,,,,,,,,,,,,
caprera,ChIJkfchrP5B2RIROm1sluuzuBk,"Caprera, La Maddalena, Province of Olbia-Tempio, Italy",locality+political,,,Italy,Sardinia,Province of Olbia-Tempio,Caprera,,,41.2069001,9.4616993,0.0
columbia,ChIJOwg_06VPwokRYv534QaPC8g,"New York, NY, USA",locality+political,,,United States,New York,,New York,,,40.7127753,-74.0059728,0.0
riga,ChIJ7T0H5bDP7kYRMP7yaM3PAAQ,"Riga, Latvia",locality+political,,,Latvia,,,Riga,,,56.94964870000001,24.1051865,0.0
saint louis,ChIJ-Y7t-qm02IcRW-C7IsrqOb4,"St. Louis, MO, USA",locality+political,,,United States,Missouri,,St. Louis,,,38.6270025,-90.1994042,0.0
treviso,ChIJUd4MwdM3eUcRjXQiXACb9kI,"31100 Treviso, Province of Treviso, Italy",locality+political,,,Italy,Veneto,Province of Treviso,Treviso,,,45.6668893,12.2430437,0.0
cosenza,ChIJKV5ezUqXPxMR-ibEPGPIGVY,"87100 Cosenza, Province of Cosenza, Italy",locality+political,,,Italy,Calabria,Province of Cosenza,Cosenza,,,39.2982629,16.2537357,0.0
san domingo,ChIJq6V-EPGJr44RZMEVJ7iHxdY,"Santo Domingo, Dominican Republic",locality+political,,,Dominican Republic,Distrito Nacional,Los Alcarrizos,Santo Domingo,,,18.4860575,-69.93121169999999,0.0
liao yang,ChIJQcn9aShGL14RO8nhXcF7HP4,"Liaoyang, Liaoning, China",locality+political,,,China,Liaoning,,Liaoyang,,,41.267244,123.236944,0.0
aprile,ChIJ6-MUNie92YgRSfOVjOoPlwI,"7761 Northwest 107th Avenue, Suite #201, Building 2, Doral, FL 33178, USA",bar+establishment+food+point_of_interest+restaurant,,,United States,Florida,Miami-Dade County,Doral,,,25.8440478,-80.36980609999998,0.0
umbria,ChIJff2Ab86ZLhMRgmK_suBHCJw,"Umbria, Italy",administrative_area_level_1+political,,,Italy,Umbria,,,,,42.938004,12.6216211,0.0
buffalo,ChIJoeXfUmES04kRcYEfGKUEI5g,"Buffalo, NY, USA",locality+political,,,United States,New York,Erie County,Buffalo,,,42.88644679999999,-78.8783689,0.0
marconi,ChIJoVO22tjbmoAR7FXlNpH-jL8,"2444 Marconi Ave, Sacramento, CA 95821, USA",establishment+point_of_interest+school,,,United States,California,Sacramento County,Sacramento,,,38.6175251,-121.4041249,0.0
citta,ChIJPStRfBrTD4gRo_qcja9vmHQ,"2230 N Halsted St, Chicago, IL 60614, USA",establishment+lodging+point_of_interest,,,United States,Illinois,Cook County,Chicago,,,41.922751,-87.6488238,0.0
portland,ChIJJ3SpfQsLlVQRkYXR9ua5Nhw,"Portland, OR, USA",locality+political,,,United States,Oregon,Multnomah County,Portland,,,45.5051064,-122.6750261,0.0
puglia,ChIJ3ZO5jSvkNhMRj3wk-HC6bzk,"Apulia, Italy",administrative_area_level_1+political,,,Italy,Apulia,,,,,40.7928393,17.1011931,0.0
vicenza,ChIJb1HS5H0xf0cRvECEC5PAjmo,"36100 Vicenza, Province of Vicenza, Italy",locality+political,,,Italy,Veneto,Province of Vicenza,Vicenza,,,45.5454787,11.5354214,0.0
n,ChIJhxadrWoruIcRXh2U_hY9xkU,"532 N Pennsylvania Ave, Independence, KS 67301, USA",establishment+finance+point_of_interest,,,United States,Kansas,Montgomery County,Independence,,,37.2292533,-95.7063266,0.0
prussia,,,,,,,,,,,,,,
mar,ChIJR9fs7emUtocRGCYzYDCV6lA,"1614 W 51st St, Tulsa, OK 74107, USA",establishment+food+point_of_interest+restaurant,,,United States,Oklahoma,Tulsa County,Tulsa,,,36.0896037,-96.0105986,0.0
cagliari,ChIJoxyOthU05xIRsW6BzwYVHiA,"Cagliari, Province of Cagliari, Italy",locality+political,,,Italy,Sardinia,Province of Cagliari,Cagliari,,,39.2238411,9.1216613,0.0
santiago de cuba,ChIJa2WSkedbzo4ROBoLRuxbGec,"Santiago de Cuba, Cuba",locality+political,,,Cuba,Santiago de Cuba,Santiago de Cuba,Santiago de Cuba,,,20.01693,-75.8301537,0.0
massachusetts,ChIJ_b9z6W1l44kRHA2DVTbQxkU,"Massachusetts, USA",administrative_area_level_1+political,,,United States,Massachusetts,,,,,42.4072107,-71.3824374,0.0
sudan,ChIJlbFyEMQc2RURNythKkZwv9I,Sudan,country+political,,,Sudan,,,,,,12.862807,30.217636,0.0
bryan,ChIJl3IPDaOhYIgRUC1Jv5Tnz9M,"721 Bryan Dr, Dayton, TN 37321, USA",establishment+point_of_interest+university,,,United States,Tennessee,Rhea County,Dayton,,,35.4984238,-84.99879720000001,0.0
nord,ChIJuTS89ooAB4gRSJZ-3wZ58dE,"800 Nord Dr, Waunakee, WI 53597, USA",establishment+point_of_interest,,,United States,Wisconsin,Dane County,Waunakee,,,43.190526,-89.437921,0.0
isole filippine,ChIJY96HXyFTQDIRV9opeu-QR3g,Philippines,country+political,,,Philippines,,,,,,12.879721,121.774017,0.0
russa,ChIJ-yRniZpWPEURE_YRZvj9CRQ,Russia,country+political,,,Russia,,,,,,61.52401,105.318756,0.0
san martino,,,,,,,,,,,,,,
rovereto,ChIJQXASQ8EOgkcR3_rrOhJklmo,"38068 Rovereto, Province of Trento, Italy",locality+political,,,Italy,Trentino-South Tyrol,Province of Trento,Rovereto,,,45.89096,11.0401399,0.0
viterbo,ChIJz98ipvksLxMRQ2tvPJVVArU,"01100 Viterbo, VT, Italy",locality+political,,,Italy,Lazio,Province of Viterbo,Viterbo,,,42.4206766,12.107669,0.0
sofia,ChIJ9Xsxy4KGqkARYF6_aRKgAAQ,"Sofia, Bulgaria",locality+political,,,Bulgaria,Sofia City Province,,Sofia,,,42.69770820000001,23.3218675,0.0
aquila,,,,,,,,,,,,,,
colombo,ChIJA3B6D9FT4joRjYPTMk0uCzI,"Colombo, Sri Lanka",locality+political,,,Sri Lanka,Western Province,Colombo,Colombo,,,6.927078599999999,79.861243,0.0
febbraio,,,,,,,,,,,,,,
penisola,ChIJV_FafvMELU0Rtqm9omn5Shw,"Bruce Peninsula National Park, 469 Cyprus Lake Rd, Tobermory, ON N0H 2R0, Canada",establishment+park+point_of_interest,,,Canada,Ontario,Bruce County,Tobermory,,,45.2288114,-81.5232556,0.0
colon,ChIJg6BxvNW2F4gRnK-HtjrJaSw,"Colon, MI 49040, USA",locality+political,,,United States,Michigan,St. Joseph County,Colon,,,41.9583822,-85.32498170000002,0.0
new chwang,ChIJn8W47tE3KF4RXqVvY_BU9pI,"Yingkou, Liaoning, China",locality+political,,,China,Liaoning,,Yingkou,,,40.667433,122.235084,0.0
san diego,ChIJSx6SrQ9T2YARed8V_f0hOg0,"San Diego, CA, USA",locality+political,,,United States,California,San Diego County,San Diego,,,32.715738,-117.1610838,0.0
caucaso,ChIJWWb-Ba8RW0ARwKs-K2BZIYQ,Caucasus,colloquial_area+political,,Caucasus,,,,,,,43.5851814,45.0,0.0
koma,ChIJLzW57V6WwIcRNv5Ja0_vrOU,"11160 S Lone Elm Rd, Olathe, KS 66061, USA",establishment+health+point_of_interest,,,United States,Kansas,Johnson County,Olathe,,,38.9259255,-94.8366865,0.0
italiana,,,,,,,,,,,,,,
rama,,,,,,,,,,,,,,
gennaio,,,,,,,,,,,,,,
r,ChIJr2j12PSEt4cRNEZUMOGE2HI,"601 W 11th St, Coffeyville, KS 67337, USA",establishment+health+pharmacy+point_of_interest+store,,,United States,Kansas,Montgomery County,Coffeyville,,,37.03296339999999,-95.6239697,0.0
napoli genova,,,,,,,,,,,,,,
lincoln,ChIJlSj9_sA5dYgRVTSAXXbNQIk,"413 S 8th St, Springfield, IL 62701, USA",establishment+point_of_interest,,,United States,Illinois,Sangamon County,Springfield,,,39.7973533,-89.64492539999998,0.0
gerusalemme,ChIJS_zBNNbXAhURy-FuRT5ib9k,"Jerusalem, Israel",locality+political,,,Israel,Jerusalem District,,Jerusalem,,,31.768319,35.21371,0.0
lucca,ChIJ7wjtUJqD1RIR4dlNZZImKnk,"55100 Lucca, Province of Lucca, Italy",locality+political,,,Italy,Tuscany,Province of Lucca,Lucca,,,43.8429197,10.5026977,0.0
repubblica francese,ChIJMVd4MymgVA0R99lHx5Y__Ws,France,country+political,,,France,,,,,,46.227638,2.213749,0.0
san giuliano,ChIJMUCcXK8b24ARMGpMOZB8-OA,"375 W Arenas Rd, Palm Springs, CA 92262, USA",establishment+lodging+point_of_interest,,,United States,California,Riverside County,Palm Springs,,,33.8210336,-116.5499035,0.0
birmingham,ChIJ07-FWN8RiYgRzlS66gl0UCU,"Birmingham, AL, USA",locality+political,,,United States,Alabama,Jefferson County,Birmingham,,,33.5185892,-86.8103567,0.0
odessa,ChIJQ0yGC4oxxkARbBfyjOKPnxI,"Odesa, Odessa Oblast, Ukraine, 65000",locality+political,,,Ukraine,Odessa Oblast,,Odesa,,,46.482526,30.7233095,0.0
erzegovina,,,,,,,,,,,,,,
merlino,ChIJGeULdM5BkFQR_ZkR-zthYcc,"4100 4th Ave S, Seattle, WA 98134, USA",establishment+food+point_of_interest,,,United States,Washington,King County,Seattle,,,47.56589,-122.328895,0.0
polonia russa,ChIJuwtkpGSZAEcR6lXMScpzdQk,Poland,country+political,,,Poland,,,,,,51.919438,19.145136,0.0
russia pietroburgo,ChIJ7WVKx4w3lkYR_46Eqz9nx20,"St Petersburg, Russia",locality+political,,,Russia,,Saint Petersburg,Saint Petersburg,,,59.9342802,30.3350986,0.0
sacramento,ChIJ-ZeDsnLGmoAR238ZdKpqH5I,"Sacramento, CA, USA",locality+political,,,United States,California,Sacramento County,Sacramento,,,38.5815719,-121.4943996,0.0
suez,ChIJ796qMnP6wokRTDZirx0rtpA,"69 Devoe Pl, Hackensack, NJ 07601, USA",establishment+point_of_interest,,,United States,New Jersey,Bergen County,Hackensack,,,40.90103670000001,-74.03808289999998,0.0
versailles,ChIJvSD0dbR95kcRukqEDa0AnoY,"78000 Versailles, France",locality+political,,,France,Île-de-France,Yvelines,Versailles,,,48.801408,2.130122,0.0
avellino,,,,,,,,,,,,,,
morgan,ChIJP7i1pOmEt4cRQDWm31R517U,"2410 Brown St, Coffeyville, KS 67337, USA",establishment+moving_company+point_of_interest,,,United States,Kansas,Montgomery County,Coffeyville,,,37.01663920000001,-95.6177158,0.0
asti,ChIJd4J_0jyTh0cRYdW5f7Z7NOc,"14100 Asti, Province of Asti, Italy",locality+political,,,Italy,Piedmont,Province of Asti,Asti,,,44.90075119999999,8.2064257,0.0
roma press co,,,,,,,,,,,,,,
agosto,ChIJpffvzI0ys1IR81TafpPpu-U,"420 N 5th St #400, Minneapolis, MN 55401, USA",establishment+point_of_interest,,,United States,Minnesota,Hennepin County,Minneapolis,,,44.9835789,-93.2775444,0.0
st,ChIJ0z-QgcWDt4cRf06QzicKaVI,"Coffeyville, KS 67337, USA",church+establishment+place_of_worship+point_of_interest,,,United States,Kansas,Montgomery County,Coffeyville,,,37.06250000000001,-95.677068,0.0
s m,ChIJUWsYLJO4woARtp8LNeVlUAU,"3731 Wilshire Blvd Suite 612, Los Angeles, CA 90010, USA",establishment+point_of_interest,,,United States,California,Los Angeles County,Los Angeles,,,34.06244829999999,-118.3074937,0.0
oakland,ChIJA-2qKIt9hYARZ5N1NdUVtHE,"Oakland, CA, USA",locality+political,,,United States,California,Alameda County,Oakland,,,37.8043514,-122.2711639,0.0
romania,ChIJw3aJlSb_sUARlLEEqJJP74Q,Romania,country+political,,,Romania,,,,,,45.943161,24.96676,0.0
marina,ChIJhw6npK_dtocRsghVlKfV7_k,"12301 CrossTimbers Dr, Sperry, OK 74073, USA",establishment+point_of_interest+real_estate_agency+store+travel_agency,,,United States,Oklahoma,Osage County,Sperry,,,36.33295089999999,-96.1004855,0.0
carrara,ChIJW6pt0JUF1RIRm40y9g5K5gk,"54033 Carrara, Province of Massa and Carrara, Italy",locality+political,,,Italy,Tuscany,Province of Massa and Carrara,Carrara,,,44.0793245,10.097677,0.0
lima,ChIJxz7uGfbFBZERSi5FzLlsIBQ,"Lima, Peru",locality+political,,,Peru,Callao Region,,Lima,,,-12.0463731,-77.042754,0.0
montevideo,ChIJ0_c7xv-An5URmexbNS4bMms,"Montevideo, Montevideo Department, Uruguay",locality+political,,,Uruguay,Montevideo Department,,Montevideo,,,-34.90111270000001,-56.16453139999999,0.0
fez,ChIJd1dETUiLnw0R7wLY7a6q5hA,"Fes, Morocco",locality+political,,,Morocco,Fez-Meknès,Wilaya de Fes,Fes,,,34.01812460000001,-5.007845099999999,0.0
havana,ChIJ4QD2vUx3zYgRYA13Gn5NKU4,"Havana, Cuba",locality+political,,,Cuba,Havana,,Havana,,,23.1135925,-82.3665956,0.0
budapest,,,,,,,,,,,,,,
napoli napoli,ChIJmX5sak8IOxMRHRl4O8Es9T0,"Naples, Metropolitan City of Naples, Italy",locality+political,,,Italy,Campania,Metropolitan City of Naples,Naples,,,40.85179829999999,14.26812,0.0
new vork,ChIJOwg_06VPwokRYv534QaPC8g,"New York, NY, USA",locality+political,,,United States,New York,,New York,,,40.7127753,-74.0059728,0.0
pesaro,ChIJMbKU_qweLRMR1DO5vATs7j8,"Pesaro, Province of Pesaro and Urbino, Italy",locality+political,,,Italy,Marche,Province of Pesaro and Urbino,Pesaro,,,43.9124756,12.9155494,0.0
prato,ChIJuZykjRH2KhMRjrY5nXfwOgA,"59100 Prato, Province of Prato, Italy",locality+political,,,Italy,Tuscany,Province of Prato,Prato,,,43.8777049,11.102228,0.0
san remo,ChIJJ7dIA0X1zRIRXSZBrINyATw,"18038 Sanremo, Province of Imperia, Italy",locality+political,,,Italy,Liguria,Province of Imperia,Sanremo,,,43.81596709999999,7.7760567,0.0
palestina,ChIJ2b1miNLyHBURhvZm0QGgF-4,Palestine,country+political,,,Palestine,,,,,,31.952162,35.233154,0.0
un,ChIJz5igHH6Et4cRDcvNx2o533Q,"904 Hall St, Coffeyville, KS 67337, USA",establishment+food+furniture_store+grocery_or_supermarket+home_goods_store+point_of_interest+store,,,United States,Kansas,Montgomery County,Coffeyville,,,37.0351782,-95.6398402,0.0
now york,ChIJOwg_06VPwokRYv534QaPC8g,"New York, NY, USA",locality+political,,,United States,New York,,New York,,,40.7127753,-74.0059728,0.0
yalu,ChIJR70-vwbvLF4RIfHpQSkxwtI,Yalu River,establishment+natural_feature,,,,,,,,,40.7854873,125.5677887,0.0
cleveland,ChIJLWto4y7vMIgRQhhi91XLBO0,"Cleveland, OH, USA",locality+political,,,United States,Ohio,Cuyahoga County,Cleveland,,,41.49932,-81.6943605,0.0
lecce,ChIJCREtL-QuRBMR8HezakxaW5s,"73100 Lecce, Province of Lecce, Italy",locality+political,,,Italy,Apulia,Province of Lecce,Lecce,,,40.35151550000001,18.1750161,0.0
san paolo,,,,,,,,,,,,,,
gaeta,ChIJUf3NODzTOhMRAjZNrY4IFMQ,"04024 Gaeta, Province of Latina, Italy",locality+political,,,Italy,Lazio,Province of Latina,Gaeta,,,41.2107299,13.5714285,0.0
new jersey,ChIJn0AAnpX7wIkRjW0_-Ad70iw,"New Jersey, USA",administrative_area_level_1+political,,,United States,New Jersey,,,,,40.0583238,-74.40566120000003,0.0
city,ChIJZ6LIHJDauYcRkm-kl7yWY9s,"Elk City, KS 67344, USA",locality+political,,,United States,Kansas,Montgomery County,Elk City,,,37.2892269,-95.9116515,0.0
luglio,,,,,,,,,,,,,,
san marco,ChIJiT3W8dqxfkcRLxCSvfDGo3s,"Venice, Metropolitan City of Venice, Italy",locality+political,,,Italy,Veneto,Metropolitan City of Venice,Venice,,,45.4408474,12.3155151,0.0
brest,,,,,,,,,,,,,,
losanna,ChIJ5aeJzT4pjEcRXu7iysk_F-s,"Lausanne, Switzerland",locality+political,,,Switzerland,Vaud,Lausanne District,Lausanne,,,46.5196535,6.6322734,0.0
montjuich,ChIJva7iMEKipBIRUEv5vj7GFgE,"Montjuïc, 08038 Barcelona, Spain",establishment+natural_feature,,,Spain,Catalonia,Barcelona,Barcelona,,,41.36400020000001,2.1674931,0.0
nilo,ChIJrUWsRqizWhQRIqs0_CQzO2I,Nile,establishment+natural_feature,,,,,,,,,23.9727595,32.8749206,0.0
porto rico,ChIJ-aeSGyaWAowRGpsEGCjsNvM,Puerto Rico,country+political,,,Puerto Rico,,,,,,18.220833,-66.590149,0.0
turchia europea,ChIJcSZPllwVsBQRKl9iKtTb2UA,Turkey,country+political,,,Turkey,,,,,,38.963745,35.243322,0.0
uoma,ChIJu46S-ZZhLxMROG5lkwZ3D7k,"Rome, Metropolitan City of Rome, Italy",locality+political,,,Italy,Lazio,Metropolitan City of Rome,Rome,,,41.9027835,12.4963655,0.0
cesnola,ChIJvezLdwCaiEcRUU7Q0Nw_5Cc,"10010 Cesnola, Metropolitan City of Turin, Italy",locality+political,,,Italy,Piedmont,Metropolitan City of Turin,Cesnola,,,45.55809420000001,7.831862599999999,0.0
tirolo,ChIJU19CW2i5gkcRGnve-YWfygg,"39019 Tirol, South Tyrol, Italy",locality+political,,,Italy,Trentino-South Tyrol,South Tyrol,Tirol,,,46.690721,11.1555403,0.0
scranton,ChIJu0tIdzrZxIkR6PqbqyB58v8,"Scranton, PA, USA",locality+political,,,United States,Pennsylvania,Lackawanna County,Scranton,,,41.408969,-75.66241219999998,0.0
santo stefano,,,,,,,,,,,,,,
francisco ferrer,ChIJOYd3fF7rwIcR6_pCl3G9joY,"10640 W 87th St, Overland Park, KS 66214, USA",doctor+establishment+health+point_of_interest,,,United States,Kansas,Johnson County,Overland Park,,,38.97144220000001,-94.7093925,0.0
portogallo lisbona,ChIJO_PkYRozGQ0R0DaQ5L3rAAQ,"Lisbon, Portugal",locality+political,,,Portugal,Lisbon,,Lisbon,,,38.7222524,-9.1393366,0.0
croazia,ChIJ7ZXdCghBNBMRfxtm4STA86A,Croatia,country+political,,,Croatia,,,,,,45.1,15.2000001,0.0
europea,,,,,,,,,,,,,,
irlanda,ChIJ5QX6zvnKd0gRYREw9umce3I,"Ireland, Shefford SG18 9LJ, UK",locality+political,,,United Kingdom,England,Central Bedfordshire,Ireland,,,52.060308,-0.347161,0.0
monroe,,,,,,,,,,,,,,
utah,ChIJzfkTj8drTIcRP0bXbKVK370,"Utah, USA",administrative_area_level_1+political,,,United States,Utah,,,,,39.32098010000001,-111.0937311,0.0
belluno,ChIJMxyfgaQHeUcRLM9ibfZCJ-0,"32100 Belluno, Province of Belluno, Italy",locality+political,,,Italy,Veneto,Province of Belluno,Belluno,,,46.1424635,12.2167088,0.0
k,ChIJ5UMqGaGDt4cRxahwrhpqH4A,"3804 W 8th St, Coffeyville, KS 67337, USA",convenience_store+establishment+food+point_of_interest+store,,,United States,Kansas,Montgomery County,Coffeyville,,,37.0366406,-95.6714121,0.0
ma,ChIJ_b9z6W1l44kRHA2DVTbQxkU,"Massachusetts, USA",administrative_area_level_1+political,,,United States,Massachusetts,,,,,42.4072107,-71.3824374,0.0
re vittorio,ChIJW4nvRAOij4ARWIF2BG3EKh4,"617 Laurel St, San Carlos, CA 94070, USA",establishment+food+point_of_interest+restaurant,,,United States,California,San Mateo County,San Carlos,,,37.5062337,-122.2606656,0.0
verdi,ChIJkfGnnpU1uIcRzJjXHV_yRx0,"Queen Rd Queen Rd, Neodesha, KS 66757, USA",cemetery+establishment+point_of_interest,,,United States,Kansas,Wilson County,Neodesha,,,37.4826004,-95.66974460000002,0.0
in sicilia,ChIJs1lT0GhiEBMRUH22ZykECwE,"Sicily, Italy",administrative_area_level_1+political,,,Italy,Sicily,,,,,37.5999938,14.0153557,0.0
ne,,,,,,,,,,,,,,
siracusa,ChIJed-Loo3OExMRh4vFsoNmc9E,"96100 Syracuse, Province of Syracuse, Italy",locality+political,,,Italy,Sicily,Province of Syracuse,Syracuse,,,37.0754739,15.2865861,0.0
tirreno,ChIJE0l4BcI-K4gRYsrH0BJH1WM,"7885 Tranmere Dr, Mississauga, ON L5S 1S6, Canada",establishment+food+point_of_interest+restaurant,,,Canada,Ontario,Regional Municipality of Peel,Mississauga,,,43.679337,-79.6728679,0.0
valle,ChIJhcBvb7Q7F4cRf6W3f0D8FHs,"Valle Vidal, New Mexico 87558, USA",establishment+natural_feature,,,United States,New Mexico,Taos County,,,,36.7572528,-105.2700032,0.0
bretagna,ChIJr45-rmHKEUgRsCTfNs2lDAE,"Brittany, France",administrative_area_level_1+political,,,France,Brittany,,,,,48.2020471,-2.9326435,0.0
itoma,,,,,,,,,,,,,,
francese,ChIJOwg_06VPwokRYv534QaPC8g,"New York, NY, USA",locality+political,,,United States,New York,,New York,,,40.7127753,-74.0059728,0.0
uro,ChIJyUwbckVZwokRrwZDOrRSU8A,"277 Driggs Ave, Brooklyn, NY 11222, USA",cafe+establishment+food+point_of_interest+store,,,United States,New York,Kings County,,,,40.7224153,-73.94878309999999,0.0
garibaldi,ChIJKw3vlUrrQIYRgv8SKq17r8k,"13700 Karalas Ln, Houston, TX 77047, USA",establishment+point_of_interest,,,United States,Texas,Harris County,Houston,,,29.6089232,-95.3950782,0.0
mo,,,,,,,,,,,,,,
briga,ChIJxWJLnYRDDogRHKQysskO_nA,"30 Lahinch, Lemont, IL 60439, USA",establishment+point_of_interest,,,United States,Illinois,Cook County,Lemont,,,41.654964,-87.967725,0.0
in germania,ChIJa76xwh5ymkcRW-WRjmtd6HU,Germany,country+political,,,Germany,,,,,,51.165691,10.451526,0.0
pretoria,ChIJM1DGvpxhlR4RTHuEerBiYvY,"Pretoria, South Africa",locality+political,,,South Africa,Gauteng,City of Tshwane Metropolitan Municipality,Pretoria,,,-25.7478676,28.2292712,0.0
thomas,ChIJ8-VZNYyDt4cR-KkXDFHugQw,"2370-, 2428 Woodland Ave, Coffeyville, KS 67337, USA",establishment+museum+point_of_interest,,,United States,Kansas,Montgomery County,Coffeyville,,,37.0516855,-95.653639,0.0
milano milano,ChIJ53USP0nBhkcRjQ50xhPN_zw,"Milan, Metropolitan City of Milan, Italy",locality+political,,,Italy,Lombardy,Metropolitan City of Milan,Milan,,,45.4642035,9.189982,0.0
palmi,ChIJy3HbQm0GFRMRdeYQ7MAuCjQ,"89015 Palmi RC, Italy",locality+political,,,Italy,Calabria,Provincia di Reggio Calabria,Palmi,,,38.3575678,15.8465246,0.0
siria,,,,,,,,,,,,,,
tivoli,ChIJz_aKQGF4LxMRR3-0uJpJA_w,"Tivoli, Metropolitan City of Rome, Italy",locality+political,,,Italy,Lazio,Metropolitan City of Rome,Tivoli,,,41.959817,12.8022261,0.0
v,ChIJCzYy5IS16lQRQrfeQ5K5Oxw,United States,country+political,,,United States,,,,,,37.09024,-95.712891,0.0
montecarlo,ChIJza3f3ofCzRIRbGhb2W4pFe4,"Monte Carlo, Monaco",locality+political,,,Monaco,,,Monaco,,,43.7400718,7.426643599999998,0.0
reggio emilia,ChIJs_nlB1scgEcRNQOGTL5Q5tk,"Reggio Emilia, Province of Reggio Emilia, Italy",locality+political,,,Italy,Emilia-Romagna,Province of Reggio Emilia,Reggio Emilia,,,44.6989932,10.6296859,0.0
st louis,ChIJ-Y7t-qm02IcRW-C7IsrqOb4,"St. Louis, MO, USA",locality+political,,,United States,Missouri,,St. Louis,,,38.6270025,-90.1994042,0.0
varese,ChIJ4w9fdSV-hkcRaCGG8lu7-R0,"21100 Varese, VA, Italy",locality+political,,,Italy,Lombardy,Province of Varese,Varese,,,45.82059890000001,8.825057600000003,0.0
galles,ChIJ7Q8cbLY0ZEgRouilirxxux4,"Wales, UK",administrative_area_level_1+political,,,United Kingdom,Wales,,,,,52.1306607,-3.7837117,0.0
in,,,,,,,,,,,,,,
peklno,ChIJuSwU55ZS8DURiqkPryBWYrk,"Beijing, China",locality+political,,,China,Beijing,,Beijing,,,39.9041998999999,116.4073963,0.0
singapore,,,,,,,,,,,,,,
sun francisco,ChIJIQBpAG2ahYAR_6128GcTUEo,"San Francisco, CA, USA",locality+political,,,United States,California,San Francisco County,San Francisco,,,37.7749295,-122.4194155,0.0
asia minore,,,,,,,,,,,,,,
natale,ChIJ-XCyuvt004kRJrSw1KD4Ync,"9159 Main St Suite 3, Clarence, NY 14031, USA",establishment+general_contractor+point_of_interest,,,United States,New York,Erie County,Clarence,,,42.96888089999999,-78.64929140000002,0.0
arabi,ChIJgaN3G1kdnogRAGMaGMXK-zk,"Arabi, LA 70032, USA",locality+political,,,United States,Louisiana,St. Bernard Parish,Arabi,,,29.9543702,-90.0053477,0.0
cellere,ChIJR9Lp3OreKBMR7hvmAAuKETI,"01010 Cellere, VT, Italy",locality+political,,,Italy,Lazio,Province of Viterbo,Cellere,,,42.511464,11.7747498,0.0
j,ChIJjc_6loGDt4cR6qXdg7U6uYs,"2205 W 8th St, Coffeyville, KS 67337, USA",establishment+health+point_of_interest,,,United States,Kansas,Montgomery County,Coffeyville,,,37.0362967,-95.64994159999999,0.0
londra londra,ChIJdd4hrwug2EcRmSrV3Vo6llI,"London, UK",locality+political,,,United Kingdom,England,Greater London,London,,,51.5073509,-0.1277583,0.0
montana,ChIJ04p7LZwrQVMRGGwqz1jWcfU,"Montana, USA",administrative_area_level_1+political,,,United States,Montana,,,,,46.87968220000001,-110.3625658,0.0
in europa,ChIJhdqtz4aI7UYRefD8s-aZ73I,Europe,continent+establishment+natural_feature+political,Europe,,,,,,,,54.52596139999999,15.2551187,0.0
meo,ChIJBUwOz23ttocRWqJ0FbeGR6s,"5508 E 11th St, Tulsa, OK 74112, USA",car_repair+establishment+point_of_interest+store,,,United States,Oklahoma,Tulsa County,Tulsa,,,36.1476425,-95.9154168,0.0
gran bretagna,ChIJAc8Rblc_YkgRBbyOF5ySMQs,"Great Britain, United Kingdom",country+political,,,United Kingdom,,,,,,53.7190281,-2.0727839,0.0
campidoglio,ChIJu46S-ZZhLxMROG5lkwZ3D7k,"Rome, Metropolitan City of Rome, Italy",locality+political,,,Italy,Lazio,Metropolitan City of Rome,Rome,,,41.9027835,12.4963655,0.0
fola,ChIJeRdSXJsvDogRGUONq5-AiCk,"8014 S Ashland Ave, Chicago, IL 60620, USA",establishment+health+point_of_interest,,,United States,Illinois,Cook County,Chicago,,,41.7480042,-87.6637531,0.0
forli,ChIJSYntK_NXKxMRdGhaUDNbtQY,"Forli, Province of Forlì-Cesena, Italy",locality+political,,,Italy,Emilia-Romagna,Province of Forlì-Cesena,Forli,,,44.2227398,12.0407312,0.0
in inghilterra,ChIJ39UebIqp0EcRqI4tMyWV4fQ,"England, UK",administrative_area_level_1+political,,,United Kingdom,England,,,,,52.3555177,-1.1743197,0.0
manhattan,ChIJOwg_06VPwokRYv534QaPC8g,"New York, NY, USA",locality+political,,,United States,New York,,New York,,,40.7127753,-74.0059728,0.0
nav,ChIJk8qUS2OPUocRfY5SvLKXNA8,"12936 South Frontrunner Blvd Suite 550, Draper, UT 84020, USA",establishment+finance+point_of_interest,,,United States,Utah,Salt Lake County,Draper,,,40.51598329999999,-111.9060702,0.0
benevento,ChIJNYfaBXQ6OhMR-X3cFyq7UH8,"82100 Benevento, Province of Benevento, Italy",locality+political,,,Italy,Campania,Province of Benevento,Benevento,,,41.1297613,14.7826208,0.0
basilea,ChIJTzBpJ8dJkEcRkIpt83DrHDY,"Basel, Switzerland",locality+political,,,Switzerland,Basel City,Basel-Stadt,Basel,,,47.5595986,7.5885761,0.0
albano,ChIJ63bM6D_9wIcRcgJ8ErZeQKs,"311 W Kansas Ave, Independence, MO 64050, USA",establishment+lawyer+point_of_interest,,,United States,Missouri,Jackson County,Independence,,,39.090907,-94.4191869,0.0
norfolk,ChIJRcoiUzqXuokRCh56zn8Qmas,"Norfolk, VA, USA",locality+political,,,United States,Virginia,,Norfolk,,,36.8507689,-76.28587259999998,0.0
s francisco,ChIJIQBpAG2ahYAR_6128GcTUEo,"San Francisco, CA, USA",locality+political,,,United States,California,San Francisco County,San Francisco,,,37.7749295,-122.4194155,0.0
valencia,ChIJb7Dv8ExPYA0ROR1_HwFRo7Q,"Valencia, Spain",locality+political,,,Spain,Valencian Community,Valencia,Valencia,,,39.4699075,-0.3762881,0.0
key west,ChIJdyOVrTSx0YgRXjtGdy_pzj8,"Key West, FL 33040, USA",locality+political,,,United States,Florida,Monroe County,Key West,,,24.5550593,-81.7799871,0.0
kingston,ChIJqY5AdAar0kwR6tnWFXdJpXY,"Kingston, ON, Canada",locality+political,,,Canada,Ontario,Frontenac County,Kingston,,,44.2311717,-76.48595440000003,0.0
marte,ChIJryxqrxCmIIYRtUFAh4d96BY,"1201 Royal St, New Orleans, LA 70116, USA",bakery+establishment+food+grocery_or_supermarket+meal_takeaway+point_of_interest+restaurant+store,,,United States,Louisiana,Orleans Parish,New Orleans,,,29.9620966,-90.06116809999996,0.0
rimini,ChIJK1mmj6TDLBMRnUTxF9uE8sE,"Rimini, Province of Rimini, Italy",locality+political,,,Italy,Emilia-Romagna,Province of Rimini,Rimini,,,44.0678288,12.5695158,0.0
kansas city,ChIJl5npr173wIcRolGqauYlhVU,"Kansas City, MO, USA",locality+political,,,United States,Missouri,Jackson County,Kansas City,,,39.0997265,-94.5785667,0.0
denver,ChIJzxcfI6qAa4cR1jaKJ_j0jhE,"Denver, CO, USA",locality+political,,,United States,Colorado,Denver County,Denver,,,39.7392358,-104.990251,0.0
imola,ChIJ31C0PXxKKxMRR228scbmn1k,"40026 Imola, Metropolitan City of Bologna, Italy",locality+political,,,Italy,Emilia-Romagna,Metropolitan City of Bologna,Imola,,,44.35999959999999,11.7124294,0.0
kuropa,,,,,,,,,,,,,,
po,ChIJm6RkJtE5gEcRiv7yW5KMi1A,"Po, Italy",establishment+natural_feature,,,Italy,,,,,,45.05656389999999,9.712058099999998,0.0
tex,ChIJpUAcqYDztocRz0LJC5D6agA,"10522 Latimer St, Tulsa, OK 74116, USA",establishment+point_of_interest,,,United States,Oklahoma,Tulsa County,Tulsa,,,36.1710948,-95.861776,0.0
inghilterra londra,ChIJdd4hrwug2EcRmSrV3Vo6llI,"London, UK",locality+political,,,United Kingdom,England,Greater London,London,,,51.5073509,-0.1277583,0.0
asiago,ChIJ9cFlMz6_eEcRNfBzdcrm7eA,"36012 Asiago, Province of Vicenza, Italy",locality+political,,,Italy,Veneto,Province of Vicenza,Asiago,,,45.8758852,11.50962,0.0
spalato,ChIJF_W8a_xdNRMRmJ-0MfaPeaE,"21000, Split, Croatia",locality+political,,,Croatia,Split-Dalmatia County,Općina Split,Split,,,43.5081323,16.4401935,0.0
candia,ChIJR9BmVI1b4okRidHgqBAHCr0,"Candia, NH, USA",locality+political,,,United States,New Hampshire,Rockingham County,Candia,,,43.0612461,-71.2888619,0.0
kronstadt,ChIJV6fyNktFlkYRS2X-Hu0iNRQ,"Kronshtadt, Saint Petersburg, Russia",locality+political,,,Russia,Saint Petersburg,Saint Petersburg,Kronshtadt,,,59.9959303,29.7655453,0.0
loubet,ChIJIaWaHkBI2YARhgOmDtPrjaI,"Misión de San Ignacio 10716, Zona Urbana Rio Tijuana, 22010 Tijuana, B.C., Mexico",establishment+point_of_interest+store,,,Mexico,Baja California,,Tijuana,,,32.5206488,-117.0082129,0.0
russia europea,ChIJhdqtz4aI7UYRefD8s-aZ73I,Europe,continent+establishment+natural_feature+political,Europe,,,,,,,,54.52596139999999,15.2551187,0.0
uh,ChIJmaG-jlq-QIYR50eCyn44nww,"4800 Calhoun Rd, Houston, TX 77004, USA",establishment+point_of_interest+university,,,United States,Texas,Harris County,Houston,,,29.7199489,-95.3422334,0.0
stati uniti d  america,ChIJCzYy5IS16lQRQrfeQ5K5Oxw,United States,country+political,,,United States,,,,,,37.09024,-95.712891,0.0
uopo,,,,,,,,,,,,,,
ut,ChIJzfkTj8drTIcRP0bXbKVK370,"Utah, USA",administrative_area_level_1+political,,,United States,Utah,,,,,39.32098010000001,-111.0937311,0.0
camden,ChIJQwA2LhnJxokRhoaToXZr498,"Camden, NJ, USA",locality+political,,,United States,New Jersey,Camden County,Camden,,,39.9259463,-75.1196199,0.0
capri,ChIJ6xs_rtF5OxMR6-IlPrQflcc,"Capri, Metropolitan City of Naples, Italy",administrative_area_level_2+political,,,Italy,Campania,Metropolitan City of Naples,,,,40.55320089999999,14.222154,0.0
etiopia,ChIJK_1s3c7QNRYRWsVIU3-m9ns,Ethiopia,country+political,,,Ethiopia,,,,,,9.145,40.489673,0.0
novembre,,,,,,,,,,,,,,
danubio,ChIJl66O6BR-mUcR18xe8w01AIg,Danube,establishment+natural_feature,,,,,,,,,46.3108097,18.9257117,0.0
new haven,ChIJ5XCAOkTY54kR7WSyWcZUo_Y,"New Haven, CT, USA",locality+political,,,United States,Connecticut,New Haven County,New Haven,,,41.308274,-72.9278835,0.0
rio,ChIJzQL3z1J_t4cRBzEiTCRV5wI,"Bluff Run, Fawn Creek Township, KS 67301, USA",establishment+natural_feature,,,United States,Kansas,Montgomery County,,,,37.0736875,-95.73859,0.0
bilbao,ChIJuYlLZidOTg0RRaaVHsSsNGU,"Bilbao, Biscay, Spain",locality+political,,,Spain,Basque Country,Biscay,Bilbao,,,43.2630126,-2.9349852,0.0
bordeaux,ChIJgcpR9-gnVQ0RiXo5ewOGY3k,"Bordeaux, France",locality+political,,,France,Nouvelle-Aquitaine,Gironde,Bordeaux,,,44.837789,-0.57918,0.0
poma,ChIJL0cwqYUNkFQRAWnNnnHBYXo,"12039 NE 128th St, Kirkland, WA 98034, USA",establishment+health+point_of_interest,,,United States,Washington,King County,Kirkland,,,47.714434,-122.1796801,0.0
saragozza,ChIJkY5hXt0UWQ0RqImEFfET30k,"Zaragoza, Spain",locality+political,,,Spain,Aragon,Zaragoza,Zaragoza,,,41.6488226,-0.8890853000000001,0.0
sinistra,,,,,,,,,,,,,,
virginia,ChIJzbK8vXDWTIgRlaZGt0lBTsA,"Virginia, USA",administrative_area_level_1+political,,,United States,Virginia,,,,,37.4315734,-78.65689420000002,0.0
in austria,ChIJfyqdJZsHbUcRr8Hk3XvUEhA,Austria,country+political,,,Austria,,,,,,47.516231,14.550072,0.0
kuropatkin,,,,,,,,,,,,,,
levante,ChIJzzk5JypZwokRQ0tuDC9Cwr8,"26-21 Jackson Ave, Long Island City, NY 11101, USA",bar+establishment+food+point_of_interest+restaurant,,,United States,New York,Queens County,,,,40.747557,-73.94169240000002,0.0
manchuria,,,,,,,,,,,,,,
mandarla,,,,,,,,,,,,,,
mllaaa,,,,,,,,,,,,,,
ohio,ChIJwY5NtXrpNogRFtmfnDlkzeU,"Ohio, USA",administrative_area_level_1+political,,,United States,Ohio,,,,,40.4172871,-82.90712300000001,0.0
west,ChIJTb9zW2P7x4cRZDibIiXJEao,"West Mineral, KS, USA",locality+political,,,United States,Kansas,Cherokee County,West Mineral,,,37.2842249,-94.9230182,0.0
indianapolis,ChIJA2p5p_9Qa4gRfOq5QPadjtY,"Indianapolis, IN, USA",locality+political,,,United States,Indiana,Marion County,Indianapolis,,,39.768403,-86.158068,0.0
pola,ChIJbXszCd7SfEcRDVhOezpKMnI,"Pula, Croatia",locality+political,,,Croatia,Istria County,Općina Pula,Pula,,,44.8666232,13.8495788,0.0
fort,ChIJT7W8IEugx4cRydwpwIOYwt0,"Market, Fort Scott, KS 66701, USA",establishment+museum+point_of_interest,,,United States,Kansas,Bourbon County,Fort Scott,,,37.84363070000001,-94.70473299999999,0.0
menelik,ChIJAYxOA75dIVMRtF5mcdKVBBA,"1213 15th Ave W, Williston, ND 58801, USA",doctor+establishment+health+point_of_interest,,,United States,North Dakota,Williams County,Williston,,,48.1550902,-103.6467658,0.0
merry del val,,,,,,,,,,,,,,
san sebastiano,ChIJ2WItgVtK5okRbclaJH8eI70,"155 Washington St, Middletown, CT 06457, USA",church+establishment+place_of_worship+point_of_interest,,,United States,Connecticut,Middlesex County,Middletown,,,41.56102740000001,-72.6533578,0.0
smirne,ChIJzcpip2LYuxQR_uicpaG7jGI,"İzmir, Turkey",locality+political,,,Turkey,İzmir,,İzmir,,,38.423734,27.142826,0.0
valona,ChIJlRjM6PEzRRMRhg4-8ZoJMQ0,"Vlorë, Albania",locality+political,,,Albania,Vlorë County,,Vlorë,,,40.46606679999999,19.491356,0.0
america del nord,ChIJnXKOaXELs1IRgqNhl4MoExM,North America,continent+establishment+natural_feature+political,North America,,,,,,,,54.52596139999999,-105.2551187,0.0
sau francisco,ChIJ835ugcYtWgcRGLfeBVUIye0,"São Francisco River, Brazil",establishment+natural_feature,,,Brazil,,,,,,-13.541478,-43.4440468,0.0
canton,ChIJxytco5X4AjQRFeTqrXXgWQ4,"Guangzhou, Guangdong, China",locality+political,,,China,Guangdong,,Guangzhou,,,23.12911,113.264385,0.0
h,ChIJVYcQGC3VuYcRxIPDI5j9rfU,"1761 58 Rd, Independence, KS 67301, USA",car_rental+establishment+point_of_interest,,,United States,Kansas,Montgomery County,Independence,,,37.1928963,-95.7313511,0.0
massaua,ChIJM_wRPYVsiEcRN835x5T66GA,"Piazza Massaua, Torino TO, Italy",route,,,Italy,Piemonte,Città Metropolitana di Torino,Torino,,,45.07506619999999,7.619556299999997,0.0
s u,ChIJCQPt6hgSt4cR_RKeh6fyCkk,"5312 Nowata Rd, Bartlesville, OK 74006, USA",establishment+gas_station+point_of_interest,,,United States,Oklahoma,Washington County,Bartlesville,,,36.7283802,-95.917798,0.0
zagabria,ChIJOcwCyZLWZUcRisL7KJYkRTo,"Zagreb, Croatia",locality+political,,,Croatia,,,Zagreb,,,45.8150108,15.9819189,0.0
osaka,ChIJ4eIGNFXmAGAR5y9q5G7BW8U,"Osaka, Japan",locality+political,,,Japan,Osaka,,Osaka,,,34.6937249,135.5022535,0.0
yokohama,ChIJNUt_3uDjuocRVYV7XEQExoQ,"613 W Douglas Ave, Wichita, KS 67213, USA",establishment+food+point_of_interest+restaurant,,,United States,Kansas,Sedgwick County,Wichita,,,37.68374710000001,-97.3474223,0.0
juarez,ChIJnTILPcte54YRdHmcVABhGQs,"Ciudad Juárez, Chihuahua, Mexico",locality+political,,,Mexico,Chihuahua,,Ciudad Juárez,,,31.6903638,-106.4245478,0.0
liao tung,,,,,,,,,,,,,,
poldhu,,,,,,,,,,,,,,
rom,ChIJlRJgdaydrkcREKuEregaJQQ,"Rom, Germany",locality+political,,,Germany,Mecklenburg-Vorpommern,,Rom,,,53.44478050000001,11.9494171,0.0
roma italia press co,ChIJu46S-ZZhLxMROG5lkwZ3D7k,"Rome, Metropolitan City of Rome, Italy",locality+political,,,Italy,Lazio,Metropolitan City of Rome,Rome,,,41.90278350000001,12.4963655,0.0
cristo,ChIJXy2RgwSjE4cRYmslFscZ-lQ,"210 N Santa Fe Ave, Pueblo, CO 81003, USA",art_gallery+establishment+museum+point_of_interest,,,United States,Colorado,Pueblo County,Pueblo,,,38.2691559,-104.606046,0.0
porta pia,ChIJu46S-ZZhLxMROG5lkwZ3D7k,"Rome, Metropolitan City of Rome, Italy",locality+political,,,Italy,Lazio,Metropolitan City of Rome,Rome,,,41.9027835,12.4963655,0.0
adua,ChIJU3SKHb72axYRrjzr7OYSo6U,"Adwa, Ethiopia",locality+political,,,Ethiopia,Tigray,Central Tigray,Adwa,,,14.1636465,38.8937176,0.0
biella,ChIJ296eyOYghkcR8w22jWgH7gQ,"13900 Biella, Province of Biella, Italy",locality+political,,,Italy,Piedmont,Province of Biella,Biella,,,45.56288420000001,8.0583397,0.0
crimea,ChIJ97NxcaPC6kAR67r_KuAJbyo,Crimean Peninsula,establishment+natural_feature+political,,,,,,,,,45.3453029,34.4997274,0.0
kiel,ChIJrZfujw1WskcRIANYxmOJJAQ,"Kiel, Germany",locality+political,,,Germany,Schleswig-Holstein,,Kiel,,,54.3232927,10.1227651,0.0
mt,,,,,,,,,,,,,,
san louis,ChIJ-Y7t-qm02IcRW-C7IsrqOb4,"St. Louis, MO, USA",locality+political,,,United States,Missouri,,St. Louis,,,38.6270025,-90.1994042,0.0
dover,ChIJ_zIzVdGk3kcRUUjXWodceDI,"Dover, UK",locality+political,,,United Kingdom,England,Kent,Dover,,,51.1278758,1.3134027,0.0
germania berlino,ChIJAVkDPzdOqEcRcDteW0YgIQQ,"Berlin, Germany",locality+political,,,Germany,Berlin,,Berlin,,,52.52000659999999,13.404954,0.0
inglese,ChIJi0zv6Ky0woARz7EHLrkEfkM,"1650 S Pacific Coast Hwy, Redondo Beach, CA 90277, USA",establishment+point_of_interest,,,United States,California,Los Angeles County,Redondo Beach,,,33.819115,-118.38418,0.0
lynn,ChIJr-WCbTIO44kRU0hrtyE-SYs,"Lynn, MA, USA",locality+political,,,United States,Massachusetts,Essex County,Lynn,,,42.46676300000001,-70.9494938,0.0
spagna madrid,ChIJgTwKgJcpQg0RaSKMYcHeNsQ,"Madrid, Spain",locality+political,,,Spain,Community of Madrid,Madrid,Madrid,,,40.4167754,-3.7037902,0.0
gibilterra,ChIJNb4UJ3a_DA0RD4cANiYlTjg,Gibraltar,country+political,,,Gibraltar,,,,,,36.140751,-5.353585,0.0
im,ChIJmQTlkJ1OuYcRFNVN_uyl-FA,"201 E 6th Ave, Emporia, KS 66801, USA",establishment+point_of_interest,,,United States,Kansas,Lyon County,Emporia,,,38.404717,-96.177231,0.0
mccloud,ChIJb47FgOAszFQR08FSa_-NZSI,"McCloud, CA 96057, USA",locality+political,,,United States,California,Siskiyou County,McCloud,,,41.2557119,-122.1394487,0.0
mona,ChIJBzLNXlxCyIcRINK-NL7AYrI,"1106 Cherokee Ave, Seneca, MO 64865, USA",clothing_store+establishment+point_of_interest+store,,,United States,Missouri,Newton County,Seneca,,,36.84138400000001,-94.611511,0.0
atlanta,ChIJjQmTaV0E9YgRC2MLmS_e_mY,"Atlanta, GA, USA",locality+political,,,United States,Georgia,Fulton County,Atlanta,,,33.7489954,-84.3879824,0.0
s e,ChIJp7KsU_SEt4cRkRtNSe3G28Q,"413 W 11th St, Coffeyville, KS 67337, USA",establishment+point_of_interest+veterinary_care,,,United States,Kansas,Montgomery County,Coffeyville,,,37.0325814,-95.6219132,0.0
albany,ChIJS_tPzDQK3okRxCjnoBJjoeE,"Albany, NY, USA",locality+political,,,United States,New York,Albany County,Albany,,,42.65257929999999,-73.7562317,0.0
foggia,ChIJ6dmfW1fYORMRG4ana83r_l4,"Foggia, Province of Foggia, Italy",locality+political,,,Italy,Apulia,Province of Foggia,Foggia,,,41.4621984,15.5446302,0.0
jefferson,ChIJpVX9CwZ_t4cR9siWShtVVoU,"Jefferson, Fawn Creek Township, KS 67301, USA",neighborhood+political,,,United States,Kansas,Montgomery County,,,,37.1095843,-95.7625713,0.0
tokyo,ChIJXSModoWLGGARILWiCfeu2M0,"Tokyo, Japan",locality+political,,Tokyo,Japan,Tokyo,,Tokyo,,,35.6803997,139.7690174,0.0
costantinopoli,,,,,,,,,,,,,,
emilia,ChIJ3YXzRny1KhMRoHy6_AubBwE,"Emilia-Romagna, Italy",administrative_area_level_1+political,,,Italy,Emilia-Romagna,,,,,44.5967607,11.2186396,0.0
ica,ChIJxTCEOnlw44kROtPtIpMFsXo,"25 Harbor Shore Dr, Boston, MA 02210, USA",establishment+museum+point_of_interest,,,United States,Massachusetts,Suffolk County,Boston,,,42.3528824,-71.04301099999998,0.0
la,ChIJE9on3F3HwoAR9AhGJW_fL-I,"Los Angeles, CA, USA",locality+political,,,United States,California,Los Angeles County,Los Angeles,,,34.0522342,-118.2436849,0.0
lodi,ChIJNTjFJtmhmoARRuhsu5jkrY4,"Lodi, CA, USA",locality+political,,,United States,California,San Joaquin County,Lodi,,,38.1341477,-121.2722194,0.0
mila,ChIJmUqUQq8sDogRqJEQo62uqL4,"201 N Garland Ct, Chicago, IL 60601, USA",establishment+point_of_interest,,,United States,Illinois,Cook County,Chicago,,,41.8860679,-87.6249653,0.0
milwaukee,ChIJ50eLV9cCBYgRhHtBtSIZX0Q,"Milwaukee, WI, USA",locality+political,,,United States,Wisconsin,Milwaukee County,Milwaukee,,,43.0389025,-87.9064736,0.0
monteleone,ChIJeeeT5SSmIIYRcEbGkOxXAH8,"214 Royal St, New Orleans, LA 70130, USA",establishment+lodging+point_of_interest,,,United States,Louisiana,Orleans Parish,New Orleans,,,29.9543472,-90.0678679,0.0
sassari,ChIJF3jKVedj3BIRpOJQ7NCH65U,"07100 Sassari, Province of Sassari, Italy",locality+political,,,Italy,Sardinia,Province of Sassari,Sassari,,,40.7259269,8.5556826,0.0
savona,ChIJjbp5Qxni0hIRN5KVuehzWuM,"17100 Savona, Province of Savona, Italy",locality+political,,,Italy,Liguria,Province of Savona,Savona,,,44.2975603,8.4645,0.0
siati uniti,,,,,,,,,,,,,,
t,ChIJb4GmcykSt4cRXV2jcGCRLxY,"1912 SE Washington Blvd, Bartlesville, OK 74006, USA",electronics_store+establishment+point_of_interest+store,,,United States,Oklahoma,Washington County,Bartlesville,,,36.72352100000001,-95.93437,0.0
torino torino,ChIJ31ztwwxtiEcR4JQ8R33mBQQ,"Turin, Metropolitan City of Turin, Italy",locality+political,,,Italy,Piedmont,Metropolitan City of Turin,Turin,,,45.0703393,7.686864,0.0
chemulpo,ChIJR4ITliVveTURQmG3LJD9N30,"Incheon, South Korea",locality+political,,,South Korea,Incheon,,Incheon,,,37.4562557,126.7052062,0.0
dal,ChIJ0RIjmDScToYRhiO7UFcadOo,"Dallas Love Field Airport (DAL), 8008 Herb Kelleher Way, Dallas, TX 75235, USA",airport+establishment+point_of_interest+political,,,United States,Texas,Dallas County,Dallas,,,32.8481029,-96.8512063,0.0
genova a new york,ChIJOwg_06VPwokRYv534QaPC8g,"New York, NY, USA",locality+political,,,United States,New York,,New York,,,40.7127753,-74.0059728,0.0
kiev,ChIJBUVa4U7P1EAR_kYBF9IxSXY,"Kyiv, Ukraine, 02000",locality+political,,,Ukraine,,Kyiv City,Kyiv,,,50.4501,30.5234,0.0
ve,,,,,,,,,,,,,,
trenton,ChIJubs9LUhDwYkRvNdciX9WFs8,"Trenton, NJ, USA",locality+political,,,United States,New Jersey,Mercer County,Trenton,,,40.2205824,-74.75971700000002,0.0
finlandia,ChIJ3fYyS9_KgUYREKh1PNZGAQA,Finland,country+political,,,Finland,,,,,,61.92410999999999,25.7481511,0.0
rovigo,ChIJwxk6Rg_6fkcRBFlQ1sYf6mo,"45100 Rovigo, Province of Rovigo, Italy",locality+political,,,Italy,Veneto,Province of Rovigo,Rovigo,,,45.0698118,11.7902158,0.0
comune di parigi,ChIJD7fiBh9u5kcRYJSMaMOCCwQ,"Paris, France",locality+political,,,France,Île-de-France,Paris,Paris,,,48.856614,2.3522219,0.0
jugoslavia,,,,,,,,,,,,,,
pennsylvania r r,ChIJieUyHiaALYgRPbQiUEchRsI,"Pennsylvania, USA",administrative_area_level_1+political,,,United States,Pennsylvania,,,,,41.2033216,-77.1945247,0.0
porto,,,,,,,,,,,,,,
sidney,ChIJP_iExpEMP4gRzOa4U9qCKAY,"Sidney, OH 45365, USA",locality+political,,,United States,Ohio,Shelby County,Sidney,,,40.2842164,-84.15549870000002,0.0
thaw,ChIJYxsmwDotO4gRbL7k1K0Noak,"535 Griswold St suite 200, Detroit, MI 48226, USA",establishment+point_of_interest,,,United States,Michigan,Wayne County,Detroit,,,42.32935300000001,-83.04700299999998,0.0
torre annunziata,ChIJi1IjT0ajOxMRuoUjyja6H30,"80058 Torre Annunziata, Metropolitan City of Naples, Italy",locality+political,,,Italy,Campania,Metropolitan City of Naples,Torre Annunziata,,,40.7540553,14.4509125,0.0
trinidad,ChIJJaz_mZoFNowR24MViuGFrGY,"Trinidad, Trinidad and Tobago",establishment+natural_feature+political,,,Trinidad and Tobago,,,,,,10.3757217,-61.23355919999999,0.0
da,ChIJvSSNujSNtocR4tiG_un_RJA,"9066 E 31st St, Tulsa, OK 74145, USA",establishment+food+point_of_interest+restaurant,,,United States,Oklahoma,Tulsa County,Tulsa,,,36.118531,-95.872968,0.0
da new york,ChIJOwg_06VPwokRYv534QaPC8g,"New York, NY, USA",locality+political,,,United States,New York,,New York,,,40.7127753,-74.0059728,0.0
malia,ChIJQ3Yxi8VkmhQRfsDV39iWTLk,"Malia, Crete 700 07, Greece",locality+political,,,Greece,,,"Malia, Crete",,,35.2831684,25.4628694,0.0
maratona,,,,,,,,,,,,,,
menellk,ChIJAYxOA75dIVMRtF5mcdKVBBA,"1213 15th Ave W, Williston, ND 58801, USA",doctor+establishment+health+point_of_interest,,,United States,North Dakota,Williams County,Williston,,,48.1550902,-103.6467658,0.0
oxford,ChIJrx_ErYAzcUgRAnRUy6jbIMg,"Oxford, UK",locality+political,,,United Kingdom,England,Oxfordshire,Oxford,,,51.7520209,-1.2577263,0.0
rema,ChIJDaiIHHkauIcRqAytcQPTeNY,"2601 Gabriel Ave, Parsons, KS 67357, USA",doctor+establishment+health+point_of_interest,,,United States,Kansas,Labette County,Parsons,,,37.3499515,-95.2799947,0.0
sialo,,,,,,,,,,,,,,
u,ChIJo_ZfrImEt4cRrezHiSjTTZo,"1223 W 8th St, Coffeyville, KS 67337, USA",establishment+point_of_interest,,,United States,Kansas,Montgomery County,Coffeyville,,,37.0358661,-95.6368408,0.0
washington washington,ChIJW-T2Wt7Gt4kRKl2I1CJFUsI,"Washington, DC, USA",locality+political,,,United States,District of Columbia,District of Columbia,Washington,,,38.9071923,-77.03687070000002,0.0
guerra,ChIJBcIvnYyzu4cRh6i9iKVD17g,"1845 Country Club Rd, El Dorado, KS 67042, USA",establishment+point_of_interest,,,United States,Kansas,Butler County,El Dorado,,,37.84155519999999,-96.8405894,0.0
villafranca,ChIJoU3LDHjegUcRBLUHUF91oOk,"37069 Villafranca di Verona, VR, Italy",locality+political,,,Italy,Veneto,Province of Verona,Villafranca di Verona,,,45.35525459999999,10.8474267,0.0
ger,ChIJj3o85nSSwokR0E_3bHGW9Jc,"28 Potter Ave, New Rochelle, NY 10801, USA",establishment+point_of_interest,,,United States,New York,Westchester County,New Rochelle,,,40.92736439999999,-73.77256100000002,0.0
lucerna,ChIJeXNUeSr6j0cRr1KZQNEq8K4,"Lucerne, Switzerland",locality+political,,,Switzerland,Lucerne,Lucerne District,Lucerne,,,47.05016819999999,8.3093072,0.0
phila,ChIJ60u11Ni3xokRwVg-jNgU9Yk,"Philadelphia, PA, USA",locality+political,,,United States,Pennsylvania,Philadelphia County,Philadelphia,,,39.9525839,-75.1652215,0.0
cook,ChIJXde3_YaEt4cR-XKIuretR_s,"1400 W 12th St, Coffeyville, KS 67337, USA",establishment+point_of_interest,,,United States,Kansas,Montgomery County,Coffeyville,,,37.032054,-95.6385767,0.0
genova genova,ChIJrZrU3FJB0xIRCmKBGPGEaiM,"Genoa, Metropolitan City of Genoa, Italy",locality+political,,,Italy,Liguria,Metropolitan City of Genoa,Genoa,,,44.4056499,8.946256,0.0
metz,ChIJqbZ0YBvclEcRaaa7Nbbka1k,"Metz, France",locality+political,,,France,Grand Est,Moselle,Metz,,,49.1193089,6.175715599999998,0.0
mogadiscio,ChIJU2vOVVlCWD0R2VnMUqrqILs,"Mogadishu, Somalia",locality+political,,,Somalia,Banaadir,Mogadisho,Mogadishu,,,2.0469343,45.3181623,0.0
porto maurizio,ChIJGeEr0jVs0hIRAyaSwjIwWds,"18100 Porto Maurizio, Province of Imperia, Italy",locality+political,,,Italy,Liguria,Province of Imperia,Porto Maurizio,,,43.87458400000001,8.0078099,0.0
rio de janeiro,ChIJW6AIkVXemwARTtIvZ2xC3FA,"Rio de Janeiro, State of Rio de Janeiro, Brazil",locality+political,,,Brazil,State of Rio de Janeiro,Rio de Janeiro,Rio de Janeiro,,,-22.9068467,-43.1728965,0.0
rome,ChIJu46S-ZZhLxMROG5lkwZ3D7k,"Rome, Metropolitan City of Rome, Italy",locality+political,,,Italy,Lazio,Metropolitan City of Rome,Rome,,,41.90278350000001,12.4963655,0.0
america latina,ChIJNfUKtP-e-ZARnLalAr89Z9I,Latin America,colloquial_area+political,,Latin America,,,,,,,-4.4420385,-61.32685350000001,0.0
carpi,ChIJowIQoy2Nf0cRP8YZ9V89seM,"41012 Carpi MO, Italy",locality+political,,,Italy,Emilia-Romagna,Provincia di Modena,Carpi,,,44.7838779,10.8796629,0.0
domodossola,ChIJI4mXJBbxhUcR0RmCKVIvqOE,"28845 Domodossola, Province of Verbano-Cusio-Ossola, Italy",locality+political,,,Italy,Piedmont,Province of Verbano-Cusio-Ossola,Domodossola,,,46.113222,8.2919754,0.0
homa,ChIJ37IOcAlMg4gRRQaTV4zYQUw,"149 Bogue Homa Lake Rd, Laurel, MS 39443, USA",establishment+point_of_interest,,,United States,Mississippi,Jones County,Laurel,,,31.7023591,-89.0245963,0.0
omaha,ChIJ7fwMtciNk4cRBLY3rk9NQkY,"Omaha, NE, USA",locality+political,,,United States,Nebraska,Douglas County,Omaha,,,41.2565369,-95.9345034,0.0
scandinavia,ChIJzSKOTeq8ZEYRgbNVAe36hnE,Scandinavia,colloquial_area+political,,Scandinavia,,,,,,,62.27864750000001,12.3401709,0.0
vigo,ChIJk8GyYRRiLw0Rn9RLF60dRHs,"Vigo, Pontevedra, Spain",locality+political,,,Spain,Galicia,Pontevedra,Vigo,,,42.24059889999999,-8.720726800000001,0.0
l'on,,,,,,,,,,,,,,
terra,ChIJCzYy5IS16lQRQrfeQ5K5Oxw,United States,country+political,,,United States,,,,,,37.09024,-95.712891,0.0
uniontown,ChIJGScBwjM-NYgRpcE4gMwSJC0,"Uniontown, PA 15401, USA",locality+political,,,United States,Pennsylvania,Fayette County,Uniontown,,,39.900076,-79.71643259999998,0.0
caruso,ChIJSUdfkpnstocRUa7omtyu0pI,"1325 E 15th St Suite 201, Tulsa, OK 74120, USA",establishment+lawyer+point_of_interest,,,United States,Oklahoma,Tulsa County,Tulsa,,,36.1408689,-95.9742723,0.0
champagne,ChIJ42566NmZtocRGGmo-pbeDUg,"429 W 158th St, Glenpool, OK 74033, USA",establishment+point_of_interest,,,United States,Oklahoma,Tulsa County,Glenpool,,,35.9346922,-96.0134444,0.0
strasburgo,ChIJwbIYXknIlkcRHyTnGDFIGpc,"Strasbourg, France",locality+political,,,France,Grand Est,Bas-Rhin,Strasbourg,,,48.5734053,7.752111299999997,0.0
angeles,ChIJE9on3F3HwoAR9AhGJW_fL-I,"Los Angeles, CA, USA",locality+political,,,United States,California,Los Angeles County,Los Angeles,,,34.0522342,-118.2436849,0.0
charleston,ChIJdySo3EJ6_ogRa-zhruD3-jU,"Charleston, SC, USA",locality+political,,,United States,South Carolina,Charleston County,Charleston,,,32.7764749,-79.93105120000001,0.0
garda,ChIJuSDArqjsgUcRuJuWHHzw3JE,"Lake Garda, Italy",locality+political,,,Italy,,,Lake Garda,,,45.6049385,10.6351414,0.0
harbin,,,,,,,,,,,,,,
honolulu,ChIJTUbDjDsYAHwRbJen81_1KEs,"Honolulu, HI, USA",locality+political,,,United States,Hawaii,Honolulu County,Honolulu,,,21.3069444,-157.8583333,0.0
ischia,ChIJx6KjBiZAOxMRHGW96v-uU88,"Ischia, Metropolitan City of Naples, Italy",administrative_area_level_2+political,,,Italy,Campania,Metropolitan City of Naples,,,,40.7270164,13.9028656,0.0
manciuria,,,,,,,,,,,,,,
san juan,ChIJbxlo4m9oA4wR3FqTXA9_a60,"San Juan, Puerto Rico",locality+political,,,Puerto Rico,San Juan,El Cinco,San Juan,,,18.4655394,-66.1057355,0.0
southampton,ChIJCSkVvleJc0gR8HHaTGpajKc,"Southampton, UK",locality+political,,,United Kingdom,England,Southampton,Southampton,,,50.90970040000001,-1.4043509,0.0
sydney,ChIJP3Sa8ziYEmsRUKgyFmh9AQM,"Sydney NSW, Australia",locality+political,,Sydney,Australia,New South Wales,,Sydney,,,-33.8688197,151.2092955,0.0
torre del greco,,,,,,,,,,,,,,
tripoli roma,ChIJ2UMcwcSSqBMRhuxce5TYmY0,"Tripoli, Libya",locality+political,,,Libya,Tripoli District,,Tripoli,,,32.8872094,13.1913383,0.0
destra,,,,,,,,,,,,,,
fon,,,,,,,,,,,,,,
lago,ChIJf902uIMquIcR82u4mMd-Utk,"Montgomery County State Lake, Independence, KS 67301, USA",establishment+natural_feature,,,United States,Kansas,Montgomery County,,,,37.1628255,-95.69116230000002,0.0
mons,ChIJ-4xXplhFwkcRkGxNL6uZAAQ,"Mons, Belgium",locality+political,,,Belgium,Wallonia,Hainaut,Mons,,,50.4542408,3.956659,0.0
s f p,,,,,,,,,,,,,,
santa fe,ChIJqVKY50NQGIcRQN-I_XMjkIw,"Santa Fe, NM, USA",locality+political,,,United States,New Mexico,Santa Fe County,Santa Fe,,,35.68697520000001,-105.937799,0.0
schio,ChIJeYxMhuazeEcRMbARShnFBMk,"36015 Schio, Province of Vicenza, Italy",locality+political,,,Italy,Veneto,Province of Vicenza,Schio,,,45.71705170000001,11.3597702,0.0
francoforte,ChIJxZZwR28JvUcRAMawKVBDIgQ,"Frankfurt, Germany",locality+political,,,Germany,Hesse,Darmstadt,Frankfurt,,,50.1109221,8.6821267,0.0
oregon,ChIJVWqfm3xuk1QRdrgLettlTH0,"Oregon, USA",administrative_area_level_1+political,,,United States,Oregon,,,,,43.8041334,-120.5542012,0.0
sua maesta,,,,,,,,,,,,,,
am,ChIJ7zTvGjQruIcRNp-_ZgAhYG4,"Independence, KS 67301, USA",establishment+point_of_interest,,,United States,Kansas,Montgomery County,Independence,,,37.21868060000001,-95.72525759999999,0.0
capitale,ChIJmS85cYhZwokR7013k7BaZYw,"130 Bowery, New York, NY 10013, USA",establishment+point_of_interest,,,United States,New York,New York County,New York,,,40.718865,-73.995193,0.0
kansas,ChIJawF8cXEXo4cRXwk-S6m0wmg,"Kansas, USA",administrative_area_level_1+political,,,United States,Kansas,,,,,39.011902,-98.4842465,0.0
marx,ChIJ-_XEhzLttocRYtECMl23d98,"4115 E 31st St, Tulsa, OK 74135, USA",establishment+insurance_agency+point_of_interest,,,United States,Oklahoma,Tulsa County,Tulsa,,,36.1191436,-95.92975330000002,0.0
mon,ChIJcRTl_mhMDogRmssqVYogVQA,"260 Oakbrook Center, Oak Brook, IL 60523, USA",bar+establishment+food+point_of_interest+restaurant,,,United States,Illinois,DuPage County,Oak Brook,,,41.84942909999999,-87.95080920000002,0.0
n y,ChIJOwg_06VPwokRYv534QaPC8g,"New York, NY, USA",locality+political,,,United States,New York,,New York,,,40.7127753,-74.0059728,0.0
oceano pacifico,ChIJ6xjzMCwE7XYRvGyHcKAU_44,Pacific Ocean,establishment+natural_feature+political,,,,,,,,,-8.783195,-124.508523,0.0
piazza colonna,ChIJB8mpTFJgLxMRcEprUdnR_Jw,"Piazza Colonna, Roma RM, Italy",route,,,Italy,Lazio,Città Metropolitana di Roma,Roma,,,41.9012244,12.4803157,0.0
america s liberatore,,,,,,,,,,,,,,
barletta,ChIJfbfJJ3IcOBMRhO-dndBbcqA,"76121 Barletta, Province of Barletta-Andria-Trani, Italy",locality+political,,,Italy,Apulia,Province of Barletta-Andria-Trani,Barletta,,,41.3196635,16.2838207,0.0
pacifica,ChIJeZZK0S93j4AROMShF38vsEQ,"Pacifica, CA, USA",locality+political,,,United States,California,San Mateo County,Pacifica,,,37.6138253,-122.4869194,0.0
tibet,ChIJwSxKnH4xYTcRmdoThGIswR8,"Tibet, China",administrative_area_level_1+political,,,China,Tibet,,,,,30.1533605,88.7878678,0.0
europe,,,,,,,,,,,,,,
piazza venezia,ChIJu46S-ZZhLxMROG5lkwZ3D7k,"Rome, Metropolitan City of Rome, Italy",locality+political,,,Italy,Lazio,Metropolitan City of Rome,Rome,,,41.9027835,12.4963655,0.0
boemia,,,,,,,,,,,,,,
colorado,ChIJt1YYm3QUQIcR_6eQSTGDVMc,"Colorado, USA",administrative_area_level_1+political,,,United States,Colorado,,,,,39.55005070000001,-105.7820674,0.0
italy,ChIJA9KNRIL-1BIRb15jJFz1LOI,Italy,country+political,,,Italy,,,,,,41.87194,12.56738,0.0
lussemburgo,ChIJRyEhyrlFlUcR75LTAvZg22Q,Luxembourg,country+political,,,Luxembourg,,,,,,49.815273,6.129582999999998,0.0
mare,ChIJo81EkBj3wIcRISBrzsuPLdU,"4105 N Mulberry Dr, Kansas City, MO 64116, USA",bar+establishment+food+point_of_interest+restaurant,,,United States,Missouri,Clay County,Kansas City,,,39.1686748,-94.5967751,0.0
p,ChIJCdx03dldtocR6-eRfSF3fP0,"30001 E Admiral Pl, Catoosa, OK 74015, USA",establishment+general_contractor+point_of_interest+store,,,United States,Oklahoma,Rogers County,Catoosa,,,36.1629963,-95.64230359999999,0.0
terranova,ChIJuegPoivXxokR72fb87fm0tg,"590 Delsea Dr, Sewell, NJ 08080, USA",bar+establishment+food+point_of_interest+restaurant,,,United States,New Jersey,Gloucester County,Washington Township,,,39.7483594,-75.1122798,0.0
aia,ChIJQ3JfxpFZwokR5bsw1ektmrQ,"536 LaGuardia Pl, New York, NY 10012, USA",establishment+point_of_interest+university,,,United States,New York,New York County,New York,,,40.72882269999999,-73.9986095,0.0
barre,ChIJb40H8_joRxMR4Qg5agZUcgg,"Bari, Metropolitan City of Bari, Italy",locality+political,,,Italy,Apulia,Metropolitan City of Bari,Bari,,,41.1171432,16.8718715,0.0
bay,,,,,,,,,,,,,,
brema,ChIJNePuDBAosUcRUd83-VyI6MI,"Bremen, Germany",locality+political,,,Germany,Bremen,,Bremen,,,53.07929619999999,8.8016936,0.0
catalogna,ChIJ8_UwhdxbpBIRUMijIeD6AAE,"Catalonia, Spain",administrative_area_level_1+political,,,Spain,Catalonia,,,,,41.5911589,1.5208624,0.0
salem,ChIJt1b4amRp44kRRVmlpaK44IE,"Salem, MA, USA",locality+political,,,United States,Massachusetts,Essex County,Salem,,,42.51954,-70.8967155,0.0
sassonia,ChIJR0Kum3LeCUcRsHmIQsuxIQE,"Saxony, Germany",administrative_area_level_1+political,,,Germany,Saxony,,,,,51.1045407,13.2017384,0.0
spokane,ChIJ5ee7MFwYnlQRsdmEC9bJ_N0,"Spokane, WA, USA",locality+political,,,United States,Washington,Spokane County,Spokane,,,47.6587802,-117.4260465,0.0
tunisia,ChIJ4aQWg0SVVRIR75sBqjozhDo,Tunisia,country+political,,,Tunisia,,,,,,33.886917,9.537499,0.0
castel,ChIJpZnHpY3OyUwRKysErvskShs,"901 Rue Principale, Granby, QC J2G 2Z5, Canada",establishment+lodging+point_of_interest,,,Canada,Québec,La Haute-Yamaska,Granby,,,45.41465529999999,-72.75329609999999,0.0
fermo,ChIJQ6NT-SUOMhMRSIlRIcicjJk,"63900 Fermo, Province of Fermo, Italy",locality+political,,,Italy,Marche,Province of Fermo,Fermo,,,43.1588734,13.7200884,0.0
harry w fee,,,,,,,,,,,,,,
sa,ChIJZ1qlXo8auIcR2z79tDxWAzM,"1730 Main St, Parsons, KS 67357, USA",establishment+point_of_interest+store,,,United States,Kansas,Labette County,Parsons,,,37.34026970000001,-95.2621464,0.0
santa clara,ChIJk8EIXIG3j4ARwL_Ao3ykdeQ,"Santa Clara, CA, USA",locality+political,,,United States,California,Santa Clara County,Santa Clara,,,37.3541079,-121.9552356,0.0
si,ChIJK9pe0WoruIcRYu0iJOm9edk,"209 N Pennsylvania Ave, Independence, KS 67301, USA",establishment+point_of_interest,,,United States,Kansas,Montgomery County,Independence,,,37.2248002,-95.7068922,0.0
sud,ChIJ9aQs5zLL1IkRtK-gP0RXd_0,"132 Yonge St, Toronto, ON M5C 1X3, Canada",bakery+establishment+food+point_of_interest+restaurant+store,,,Canada,Ontario,Toronto Division,Toronto,,,43.6509164,-79.37878520000002,0.0
xew york,ChIJOwg_06VPwokRYv534QaPC8g,"New York, NY, USA",locality+political,,,United States,New York,,New York,,,40.7127753,-74.0059728,0.0
ta,ChIJZ3V_9wDWuIcRO1TRBXuJobM,"2775 US-75, Lebo, KS 66856, USA",establishment+food+gas_station+point_of_interest+store,,,United States,Kansas,Coffey County,Lebo,,,38.42744570000001,-95.7273128,0.0
valenza,ChIJKQnG_KgLh0cRJlfLd6d9KBs,"15048 Valenza, Province of Alessandria, Italy",locality+political,,,Italy,Piedmont,Province of Alessandria,Valenza,,,45.0122876,8.64411099999999,0.0
via nazionale,,,,,,,,,,,,,,
alaska,ChIJG8CuwJzfAFQRNduKqSde27w,"Alaska, USA",administrative_area_level_1+political,,,United States,Alaska,,,,,64.2008413,-149.4936733,0.0
caporetto,,,,,,,,,,,,,,
casa savoia,ChIJnRQpT4cIzRIR3cxFcvxFnBk,"Regione Terme, 1, 12010 Valdieri CN, Italy",establishment+lodging+point_of_interest,,,Italy,Piemonte,Provincia di Cuneo,Valdieri,,,44.20671820000001,7.271069299999999,0.0
dublino,ChIJL6wn6oAOZ0gRoHExl6nHAAo,"Dublin, Ireland",locality+political,,,Ireland,County Dublin,,Dublin,,,53.34980529999999,-6.260309700000001,0.0
fulton,ChIJ0dNnmHCr9YgRE8XXDotB0tc,"Fulton County, GA, USA",administrative_area_level_2+political,,,United States,Georgia,Fulton County,,,,33.80339650000001,-84.3962535,0.0
i,ChIJCzYy5IS16lQRQrfeQ5K5Oxw,United States,country+political,,,United States,,,,,,37.09024,-95.712891,0.0
lago maggiore,ChIJkT1mADDahUcR7pLKJzbo3lc,Lake Maggiore,establishment+natural_feature,,,,,,,,,45.9676218,8.6532586,0.0
lazio,,,,,,,,,,,,,,
porto arturo,,,locality+political,,,China,Liaoning,,Dalian,,,38.851705,121.261953,0.0
salt lake,ChIJ7THRiJQ9UocRyjFNSKC3U1s,"Salt Lake City, UT, USA",locality+political,,,United States,Utah,Salt Lake County,Salt Lake City,,,40.7607793,-111.8910474,0.0
santa cruz,,,,,,,,,,,,,,
siberia orientale,ChIJO3rn9brrh1wRTEZnK5gSRCw,"Siberia, Russia",colloquial_area+political,,Siberia,Russia,,,,,,61.0137097,99.1966559,0.0
una,,,,,,,,,,,,,,
austria ungheria,,,,,,,,,,,,,,
avana,ChIJ4QD2vUx3zYgRYA13Gn5NKU4,"Havana, Cuba",locality+political,,,Cuba,Havana,,Havana,,,23.1135925,-82.3665956,0.0
chiesa,,,,,,,,,,,,,,
colonia italiana,ChIJD7fFRUlI2YARpbHLkbbXJzE,"Colombia 9230, Col. Madero (Cacho), 22040 Tijuana, B.C., Mexico",establishment+food+point_of_interest+restaurant,,,Mexico,Baja California,,Tijuana,,,32.5204039,-117.0253756,0.0
comune di roma,ChIJu46S-ZZhLxMROG5lkwZ3D7k,"Rome, Metropolitan City of Rome, Italy",locality+political,,,Italy,Lazio,Metropolitan City of Rome,Rome,,,41.9027835,12.4963655,0.0
dalny,ChIJ346i5dQcJloRlObRau-t3Jg,"Dalny, Chukotka Autonomous Okrug, Russia, 689460",locality+political,,,Russia,Chukotka Autonomous Okrug,Bilibinsky District,Dalny,,,67.5775,160.7725,0.0
lodz,ChIJr1ZFdSTLG0cRrNshm2OufMs,"Łódź, Poland",locality+political,,,Poland,Łódź Voivodeship,Łódź,Łódź,,,51.7592485,19.4559833,0.0
new york uopo,ChIJOwg_06VPwokRYv534QaPC8g,"New York, NY, USA",locality+political,,,United States,New York,,New York,,,40.7127753,-74.0059728,0.0
soc,ChIJMxSi48KLtocRI8cl0Osi7eI,"400 S Main St, Broken Arrow, OK 74012, USA",establishment+museum+point_of_interest+store,,,United States,Oklahoma,Tulsa County,Broken Arrow,,,36.0492032,-95.7911229,0.0
turchia asiatica,ChIJcSZPllwVsBQRKl9iKtTb2UA,Turkey,country+political,,,Turkey,,,,,,38.963745,35.243322,0.0
viareggio,ChIJT2pIuPyh1RIRaaHdkiwWmf4,"55049 Viareggio, Province of Lucca, Italy",locality+political,,,Italy,Tuscany,Province of Lucca,Viareggio,,,43.8657267,10.2513103,0.0
new york city,ChIJOwg_06VPwokRYv534QaPC8g,"New York, NY, USA",locality+political,,,United States,New York,,New York,,,40.7127753,-74.0059728,0.0
buenos,ChIJvQz5TjvKvJURh47oiC6Bs6A,"Buenos Aires, Argentina",locality+political,,,Argentina,Buenos Aires,,Buenos Aires,,,-34.6036844,-58.3815591,0.0
ca,ChIJPV4oX_65j4ARVW8IJ6IJUYs,"California, USA",administrative_area_level_1+political,,,United States,California,,,,,36.778261,-119.4179324,0.0
detroit,ChIJdR3LEAHKJIgR0sS5NU6Gdlc,"Detroit, MI, USA",locality+political,,,United States,Michigan,Wayne County,Detroit,,,42.33142700000001,-83.0457538,0.0
malaga,ChIJUdEwjWn2cg0RgOZ2pXjSAwQ,"Málaga, Spain",administrative_area_level_4+political,,,Spain,Andalusia,Málaga,,,,36.7167456,-4.4259962,0.0
porto said,ChIJmWuekz6c-RQRs0x9D1UErkw,"Port Said, Port Fouad, Port Said Governorate, Egypt",locality+political,,,Egypt,Port Said Governorate,Port Fouad,Port Said,,,31.2652893,32.30186610000001,0.0
san giovanni,ChIJ4ZFTZQkVK4cRW0mzgeTX8O0,"6901 W McDowell Rd, Phoenix, AZ 85035, USA",establishment+point_of_interest,,,United States,Arizona,Maricopa County,Phoenix,,,33.4647315,-112.2080164,0.0
unito,ChIJNy1yz3ptiEcRtqbN-nI4NDc,"Via Giuseppe Verdi, 8, 10124 Torino TO, Italy",establishment+point_of_interest+university,,,Italy,Piemonte,Città Metropolitana di Torino,Torino,,,45.06942799999999,7.688900599999997,0.0
arizona,ChIJaxhMy-sIK4cRcc3Bf7EnOUI,"Arizona, USA",administrative_area_level_1+political,,,United States,Arizona,,,,,34.0489281,-111.0937311,0.0
con,ChIJzZ82psaCt4cRtNoGYLrUbks,"3965 County Rd 1275, Coffeyville, KS 67337, USA",establishment+point_of_interest+store,,,United States,Kansas,Montgomery County,Coffeyville,,,37.0044019,-95.7038457,0.0
hall,ChIJDTG2xveEt4cRXVWhok4uIrI,"5809, 119 W 9th St, Coffeyville, KS 67337, USA",bar+establishment+food+point_of_interest+restaurant,,,United States,Kansas,Montgomery County,Coffeyville,,,37.0348089,-95.61680129999999,0.0
madera,ChIJA9vG_ZILlIAREGnnItpCwzY,"Madera, CA, USA",locality+political,,,United States,California,Madera County,Madera,,,36.96133560000001,-120.0607176,0.0
me,ChIJxTUosA8ruIcRK-OdsNg3OYg,"123w main, Independence, KS 67301, USA",establishment+health+point_of_interest,,,United States,Kansas,Montgomery County,Independence,,,37.2229608,-95.7078139,0.0
s pietro,ChIJPS3UVwqJJRMRsH46sppPCQA,"00120, Vatican City",locality+political,,,Vatican City,,,Vatican City,,,41.902916,12.453389,0.0
